{
  "version": 0.6,
  "generator": "Overpass API 0.7.61.5 4133829e",
  "osm3s": {
    "timestamp_osm_base": "2024-03-07T07:36:17Z",
    "timestamp_areas_base": "2024-03-07T05:01:59Z",
    "copyright": "The data included in this document is from www.openstreetmap.org. The data is made available under ODbL."
  },
  "elements": [
    {
      "type": "node",
      "id": 60438337,
      "lat": 48.2046365,
      "lon": 16.3682605,
      "tags": {
        "addr:city": "Wien",
        "addr:country": "AT",
        "addr:housenumber": "1",
        "addr:postcode": "1010",
        "addr:street": "Albertinaplatz",
        "amenity": "arts_centre",
        "changing_table": "yes",
        "changing_table:location": "wheelchair_toilet",
        "description:en": "One of Vienna's premier museums. Originated as a collection of art presented a Habsburg family to in 1776. (Source: Wikipedia:en)",
        "fee": "yes",
        "heritage": "2",
        "heritage:operator": "bda",
        "museum": "art",
        "name": "Albertina",
        "name:bg": "Албертина",
        "name:de": "Albertina",
        "name:ja": "アルベルティーナ",
        "name:ko": "알베르티나 미술관",
        "name:ru": "Альбертина",
        "name:uk": "Альбертіна",
        "name:zh": "阿尔贝提纳博物馆",
        "old_name": "Palais Erzherzog Albrecht",
        "opening_hours": "PH,Th,Sa-Tu 10:00-18:00; We,Fr 10:00-21:00",
        "phone": "+43153483",
        "ref:at:bda": "13757",
        "toilets:wheelchair": "yes",
        "tourism": "museum",
        "website": "https://www.albertina.at/",
        "wheelchair": "yes",
        "wikidata": "Q371908",
        "wikipedia": "de:Albertina (Wien)"
      }
    },
    {
      "type": "node",
      "id": 76531413,
      "lat": 48.2076988,
      "lon": 16.3656104,
      "tags": {
        "check_date": "2022-11-24",
        "description:en": "Museum about cult figure Empress Elisabeth \"Sisi\" 1837-1898, wife of Emperor Franz Joseph",
        "fee": "yes",
        "level": "2",
        "name": "Sisi Museum",
        "name:de": "Sisi Museum",
        "name:ko": "씨씨 박물관",
        "name:ru": "Музей Сиси",
        "opening_hours": "Sep-Jun: Mo-Su,PH 09:00-17:30;Jul-Aug: Mo-Su,PH 09:00-18:00",
        "operator": "Schloß Schönbrunn Kultur- und Betriebsges.m.b.H.",
        "subject:wikipedia": "de:Elisabeth von Österreich-Ungarn",
        "toilets:wheelchair": "yes",
        "tourism": "museum",
        "website": "https://www.sisimuseum-hofburg.at",
        "wheelchair": "yes"
      }
    },
    {
      "type": "node",
      "id": 76653086,
      "lat": 48.2063691,
      "lon": 16.3992724,
      "tags": {
        "addr:city": "Wien",
        "addr:country": "AT",
        "addr:housenumber": "5",
        "addr:postcode": "1020",
        "addr:street": "Wittelsbachstraße",
        "amenity": "school",
        "blind:description:de": "Blindenmuseum, Führungen nach telefonischer Anmeldung.",
        "description:en": "Guided tours by appointment. Development of teaching and learning aids for teaching blind people. (Source: museum website)",
        "fee": "no",
        "fixme": "Service Hours: Führungen nach telefonischer Anfrage",
        "name": "Museum des Blindenwesens",
        "name:en": "Museum of Blindness",
        "phone": "+ 43-1-7280866 / 216",
        "tourism": "museum",
        "website": "https://www.bbi.at/museum"
      }
    },
    {
      "type": "node",
      "id": 288513134,
      "lat": 48.2114411,
      "lon": 16.3662578,
      "tags": {
        "addr:city": "Wien",
        "addr:country": "AT",
        "addr:housenumber": "8",
        "addr:postcode": "1010",
        "addr:street": "Freyung",
        "description:en": "Bank Austria Art Collection. Around 10,000 works and one of foremost collections of Austrian art. Begins in the late C19th with historicism and Viennese art nouveau. Central focus on post-1945 avant-garde painting and contemporary art. (Source: website)",
        "fee": "yes",
        "museum": "art",
        "name": "Bank Austria Kunstforum",
        "name:hu": "Bank Austria kortárs művészeti fórum",
        "opening_hours": "Sa-Th 10:00-19:00; Fr 10:00-21:00",
        "phone": "+43 1 537 33 26",
        "toilets:wheelchair": "yes",
        "tourism": "museum",
        "website": "https://www.kunstforumwien.at/",
        "wheelchair": "yes",
        "wikidata": "Q806615",
        "wikipedia": "de:Bank Austria Kunstforum Wien"
      }
    },
    {
      "type": "node",
      "id": 291151851,
      "lat": 48.2098481,
      "lon": 16.2559656,
      "tags": {
        "addr:city": "Wien",
        "addr:country": "AT",
        "addr:housenumber": "26",
        "addr:postcode": "1140",
        "addr:street": "Hüttelbergstraße",
        "email": "info@ernstfuchsmuseum.at",
        "fee": "yes",
        "image": "https://upload.wikimedia.org/wikipedia/commons/thumb/0/09/Ernst_Fuchs_2007.jpg/440px-Ernst_Fuchs_2007.jpg",
        "name": "Ernst Fuchs Museum",
        "opening_hours": "Tu-Su 10:00-16:00",
        "phone": "+43 1 91 48 575",
        "subject:wikipedia": "de:Ernst Fuchs (Maler)",
        "tourism": "museum",
        "website": "https://www.ernstfuchsmuseum.at/",
        "wheelchair": "no"
      }
    },
    {
      "type": "node",
      "id": 316524224,
      "lat": 48.2041786,
      "lon": 16.3576164,
      "tags": {
        "addr:city": "Wien",
        "addr:country": "AT",
        "addr:housenumber": "1",
        "addr:postcode": "1070",
        "addr:street": "Museumsplatz",
        "alt_name": "Az W",
        "description:en": "\"the Austrian Museum of Architecture and sees itself as an exhibition, events and research centre that focuses on the theme of architecture and the culture of building.\" - offical website",
        "fee": "yes",
        "museum": "architecture",
        "name": "Architekturzentrum Wien",
        "name:en": "Architecture Centre Vienna",
        "name:hu": "Bécsi Építészeti Központ",
        "name:ru": "Архитектурный центр Вены",
        "opening_hours": "Mo-Su 10:00-19:00",
        "short_name": "azw",
        "start_date": "2001",
        "toilets:wheelchair": "yes",
        "tourism": "museum",
        "website": "https://www.azw.at/",
        "wheelchair": "yes",
        "wikidata": "Q635399",
        "wikipedia": "de:Architekturzentrum Wien"
      }
    },
    {
      "type": "node",
      "id": 319605564,
      "lat": 48.1999357,
      "lon": 16.3258805,
      "tags": {
        "addr:city": "Wien",
        "addr:country": "AT",
        "addr:housenumber": "25",
        "addr:postcode": "1150",
        "addr:street": "Loeschenkohlgasse",
        "fee": "yes",
        "level": "4",
        "museum": "scouts",
        "name": "Pfadfindermuseum",
        "opening_hours": "Th-Fr 17:00-21:00",
        "tourism": "museum",
        "website": "https://www.pfadfindermuseum.org/",
        "wikidata": "Q87183563"
      }
    },
    {
      "type": "node",
      "id": 319734181,
      "lat": 48.2071298,
      "lon": 16.3692931,
      "tags": {
        "addr:city": "Wien",
        "addr:country": "AT",
        "addr:housenumber": "11",
        "addr:postcode": "1010",
        "addr:street": "Dorotheergasse",
        "alt_name": "Museum Dorotheergasse",
        "check_date": "2023-01-26",
        "description": "der Stadt Wien",
        "description:en": "\"seeks to raise awareness of Jewish history, religion, and culture.\" (Source: museum website)",
        "fee": "yes",
        "name": "Jüdisches Museum Wien",
        "name:cs": "Židovské muzeum Vídeň",
        "name:en": "Jewish Museum Vienna",
        "name:es": "Museo Judio de Viena",
        "name:hu": "Bécsi Zsidó Múzeum",
        "name:ja": "ユダヤ人博物館",
        "opening_hours": "Mo-Fr, Su 10:00-18:00",
        "operator": "Jüdisches Museum der Stadt Wien GmbH",
        "start_date": "1988",
        "toilets:wheelchair": "yes",
        "tourism": "museum",
        "website": "https://www.jmw.at/",
        "wheelchair": "yes",
        "wikidata": "Q1716827",
        "wikipedia": "de:Jüdisches Museum Wien"
      }
    },
    {
      "type": "node",
      "id": 323060663,
      "lat": 48.2182253,
      "lon": 16.3784885,
      "tags": {
        "addr:city": "Wien",
        "addr:country": "AT",
        "addr:housenumber": "24",
        "addr:postcode": "1020",
        "addr:street": "Große Sperlgasse",
        "contact:website": "http://www.kriminalmuseum.at",
        "description:en": "The Vienna Crime Museum combined with theMuseum of the Vienna Federal Police Directorat (Source: museum website)",
        "fee": "yes",
        "museum": "crime",
        "name": "Wiener Kriminalmuseum",
        "name:hu": "Bécsi Bűnügyi Múzeum",
        "name:ja": "ウィーン犯罪博物館",
        "old_name": "Museum der Bundespolizeidirektion Wien",
        "opening_hours": "Tu-Su 10:00-17:00",
        "operator": "SEYRL OEG",
        "tourism": "museum",
        "website": "http://www.kriminalmuseum.at",
        "wheelchair": "no",
        "wikidata": "Q2568990",
        "wikipedia": "de:Wiener Kriminalmuseum"
      }
    },
    {
      "type": "node",
      "id": 331418208,
      "lat": 48.2179678,
      "lon": 16.3330132,
      "tags": {
        "addr:city": "Wien",
        "addr:country": "AT",
        "addr:housenumber": "72-74",
        "addr:postcode": "1170",
        "addr:street": "Hernalser Hauptstraße",
        "check_date": "2023-02-24",
        "fee": "yes",
        "level": "2",
        "name": "Bezirksmuseum Hernals",
        "opening_hours": "Mo 16:00-20:00; Su[1,3] 10:00-12:00; Jul-Aug off; PH off",
        "tourism": "museum",
        "website": "https://www.bezirksmuseum.at/de/bezirksmuseum_17",
        "wikidata": "Q854292"
      }
    },
    {
      "type": "node",
      "id": 332346748,
      "lat": 48.215771,
      "lon": 16.3507996,
      "tags": {
        "addr:city": "Wien",
        "addr:country": "AT",
        "addr:housenumber": "1",
        "addr:postcode": "1090",
        "addr:street": "Mariannengasse",
        "addr:unit": "15",
        "check_date": "2023-06-11",
        "description:en": "Viktor Frankl, neurologist and psychiatrist, founder of the \"Third Viennese School of Psychotherapy\". He lived here. (Source: operator wesite)",
        "fee": "yes",
        "museum": "person",
        "name": "Viktor-Frankl-Museum",
        "opening_hours": "Mo 13:00-18:00; Fr 13:00-18:00; Sa 13:00-18:00",
        "operator": "Viktor-Frankl-Zentrum",
        "phone": "+43 699 10961068",
        "start_date": "2015",
        "tourism": "museum",
        "website": "https://www.franklzentrum.org/"
      }
    },
    {
      "type": "node",
      "id": 365214262,
      "lat": 48.2242721,
      "lon": 16.331133,
      "tags": {
        "addr:city": "Wien",
        "addr:country": "AT",
        "addr:housenumber": "87",
        "addr:postcode": "1170",
        "addr:street": "Schumanngasse",
        "name": "Schneekugelmuseum",
        "opening_hours": "Mo-Th 09:00-15:00",
        "tourism": "museum",
        "website": "https://www.schneekugel.at/"
      }
    },
    {
      "type": "node",
      "id": 412510725,
      "lat": 48.1991054,
      "lon": 16.3776481,
      "tags": {
        "addr:city": "Wien",
        "addr:country": "AT",
        "addr:housenumber": "6",
        "addr:postcode": "1030",
        "addr:street": "Schwarzenbergplatz",
        "amenity": "library",
        "description:en": "Repository of the works of Austrian atonality composer and expressionist painter, Arnold Schönberg (1874-1951).",
        "level": "2",
        "name": "Arnold Schönberg Center",
        "source:description:en": "wikipedia:en",
        "tourism": "museum",
        "website": "https://www.schoenberg.at/",
        "wheelchair": "yes",
        "wikidata": "Q696262",
        "wikipedia": "de:Arnold Schönberg Center"
      }
    },
    {
      "type": "node",
      "id": 419295548,
      "lat": 48.1906097,
      "lon": 16.3541899,
      "tags": {
        "addr:city": "Wien",
        "addr:country": "AT",
        "addr:housenumber": "54",
        "addr:postcode": "1050",
        "addr:street": "Schönbrunner Straße",
        "name": "Bezirksmuseum Margareten",
        "opening_hours": "Th 16:00-19:00",
        "tourism": "museum",
        "website": "https://www.bezirksmuseum.at/de/bezirksmuseum_5",
        "wikidata": "Q854299"
      }
    },
    {
      "type": "node",
      "id": 441696312,
      "lat": 48.20674,
      "lon": 16.3658462,
      "tags": {
        "check_date": "2022-11-24",
        "description:en": "2 collections, secular and ecclesiastical, of treasures covering over a thousand years of European history. Includes Hapsburg & Holy Roman Empire imperial reglia. (Source: wikipedia:en)",
        "fee": "yes",
        "name": "Kaiserliche Schatzkammer",
        "name:de": "Kaiserliche Schatzkammer",
        "name:en": "Imperial Treasury",
        "name:es": "Cámara del Tesoro Imperial",
        "name:hu": "Császári Kincstár (Schatzkammer)",
        "name:ru": "Королевская сокровищница",
        "name:zh": "皇家珍宝馆",
        "official_name": "Kaiserliche Schatzkammer Wien",
        "opening_hours": "We-Mo,PH 09:00-17:30",
        "operator": "KHM-Museumsverband, scientific institution under public law",
        "tourism": "museum",
        "website": "http://www.kaiserliche-schatzkammer.at",
        "wikidata": "Q317701",
        "wikipedia": "de:Schatzkammer (Wien)"
      }
    },
    {
      "type": "node",
      "id": 459527500,
      "lat": 48.2161316,
      "lon": 16.5238872,
      "tags": {
        "addr:city": "Wien",
        "addr:country": "AT",
        "addr:postcode": "1220",
        "addr:street": "Simonsgasse",
        "name": "Schüttkasten Eßling",
        "opening_hours": "Apr-Oct: Su 10:00-12:00",
        "tourism": "museum",
        "website": "http://www.aspern-essling-1809.eu"
      }
    },
    {
      "type": "node",
      "id": 478856085,
      "lat": 48.2047655,
      "lon": 16.3726084,
      "tags": {
        "addr:city": "Wien",
        "addr:country": "AT",
        "addr:housenumber": "6",
        "addr:postcode": "1010",
        "addr:street": "Johannesgasse",
        "description:en": "\"Presents the full diversity and polyphony of Austrian literature from the 18th century to the present day. Books, manuscripts, letters, drawings, photographs as well as fascinating showpieces like a director's chair of Ernst Jandl, or a model of the \"Ros",
        "fee": "yes",
        "language:audioguides:de": "yes",
        "language:audioguides:en": "yes",
        "language:descriptions:de": "yes",
        "name": "Literaturmuseum",
        "name:en": "Literature Museum",
        "name:hu": "Osztrák Irodalmi Múzeum",
        "operator": "Österreichische Nationalbibliothek",
        "source:description:en": "http://www.onb.ac.at/literaturmuseum.htm",
        "start_date": "2015",
        "toilets:wheelchair": "yes",
        "tourism": "museum",
        "website": "https://www.onb.ac.at/literaturmuseum.htm",
        "wheelchair": "yes",
        "wikidata": "Q15832553"
      }
    },
    {
      "type": "node",
      "id": 566991892,
      "lat": 48.2119327,
      "lon": 16.3564432,
      "tags": {
        "addr:city": "Wien",
        "addr:country": "AT",
        "addr:housenumber": "9",
        "addr:postcode": "1010",
        "addr:street": "Friedrich-Schmidt-Platz",
        "description:en": "Vienna Planning Workshop. Exhibitions and events based around Vienna urban developments and socio-political changes.",
        "email": "wpw@ma18.wien.gv.at",
        "name": "Wiener Planungswerkstatt",
        "name:hu": "Bécsi várostervező műhely",
        "opening_hours": "Mo-We, Fr 09:00-16:00; Th 09:00-19:00",
        "operator": "Wiener Stadtverwaltung",
        "phone": "+43 1 4000-88888",
        "source:description:en": "www.planungswerkstatt.at",
        "tourism": "museum",
        "website": "https://www.wien.gv.at/stadtentwicklung/dienststellen/ma18/wiener-planungswerkstatt.html",
        "wheelchair": "yes",
        "wikidata": "Q2569057",
        "wikipedia": "de:Wiener Planungswerkstatt"
      }
    },
    {
      "type": "node",
      "id": 567066337,
      "lat": 48.2056192,
      "lon": 16.3685195,
      "tags": {
        "addr:city": "Wien",
        "addr:country": "AT",
        "addr:housenumber": "2",
        "addr:postcode": "1010",
        "addr:street": "Lobkowitzplatz",
        "email": "info@theatermuseum.at",
        "fee": "yes",
        "name": "Theatermuseum",
        "name:hu": "Színházmúzeum",
        "name:ja": "演劇博物館",
        "name:zh": "戲劇博物館",
        "opening_hours": "Mo, We-Su 10:00-18:00",
        "phone": "+43 1 525 24 3460",
        "toilets:wheelchair": "yes",
        "tourism": "museum",
        "website": "https://www.theatermuseum.at/",
        "wheelchair": "yes",
        "wikidata": "Q306724"
      }
    },
    {
      "type": "node",
      "id": 567084279,
      "lat": 48.2108548,
      "lon": 16.3712141,
      "tags": {
        "addr:city": "Wien",
        "addr:country": "AT",
        "addr:housenumber": "19",
        "addr:postcode": "1010",
        "addr:street": "Tuchlauben",
        "description:en": "The oldest secular mural paintings in Vienna. Painted in c1407 and resdicovered in 1979. (Source: Wien government)",
        "fee": "yes",
        "level": "1",
        "museum": "art",
        "name": "Neidhart-Festsaal",
        "old_name": "Neidhart-Fresken",
        "opening_hours": "Fr-Su 10:00-13:00, Fr-Su 14:00-17:00",
        "operator": "Wien Museum",
        "tourism": "museum",
        "website": "https://www.wienmuseum.at/neidhart_festsaal",
        "wheelchair": "no"
      }
    },
    {
      "type": "node",
      "id": 600721260,
      "lat": 48.1839307,
      "lon": 16.3569086,
      "tags": {
        "description:en": "Socio-economic museum. Famous as the base for the development of the Vienna Method of graphic descign.",
        "fee": "yes",
        "name": "Österreichisches Gesellschafts- und Wirtschaftsmuseum",
        "name:de": "Österreichisches Gesellschafts- und Wirtschaftsmuseum",
        "name:en": "Austrian Social and Economic Museum",
        "source:description": "wikipedia:en",
        "start_date": "1925",
        "tourism": "museum",
        "website": "www.wirtschaftsmuseum.at",
        "wikidata": "Q306628",
        "wikipedia": "de:Österreichisches Gesellschafts- und Wirtschaftsmuseum"
      }
    },
    {
      "type": "node",
      "id": 666750600,
      "lat": 48.2131498,
      "lon": 16.3505518,
      "tags": {
        "addr:city": "Wien",
        "addr:country": "AT",
        "addr:housenumber": "17",
        "addr:postcode": "1080",
        "addr:street": "Laudongasse",
        "check_date": "2023-06-11",
        "check_date:opening_hours": "2023-02-03",
        "description:en": "Displays collections of the traditional folk culture of Austria and its neighbouring countries.",
        "fee": "yes",
        "name": "Volkskundemuseum",
        "name:de": "Volkskundemuseum",
        "name:en": "Austrian Museum of Folk Life and Folk Art",
        "opening_hours": "Tu-Su 10:00-17:00, Th 10:00-20:00",
        "start_date": "1895",
        "tourism": "museum",
        "website": "https://www.volkskundemuseum.at/",
        "wheelchair": "yes",
        "wikidata": "Q306678"
      }
    },
    {
      "type": "node",
      "id": 693497919,
      "lat": 48.1940536,
      "lon": 16.3339173,
      "tags": {
        "addr:city": "Wien",
        "addr:country": "AT",
        "addr:housenumber": "4",
        "addr:postcode": "1150",
        "addr:street": "Rosinagasse",
        "check_date": "2022-12-11",
        "fee": "no",
        "level": "0",
        "name": "Bezirksmuseum Rudolfsheim-Fünfhaus",
        "opening_hours": "Mo 17:00-19:00; Fr 15:30-17:30; PH off; Jul-Aug off; SH off",
        "tourism": "museum",
        "website": "https://www.museum15.at/",
        "wikidata": "Q854310",
        "wikipedia": "de:Bezirksmuseum Rudolfsheim-Fünfhaus"
      }
    },
    {
      "type": "node",
      "id": 844546176,
      "lat": 48.2012763,
      "lon": 16.3879449,
      "tags": {
        "addr:city": "Wien",
        "addr:country": "AT",
        "addr:housenumber": "11",
        "addr:postcode": "1030",
        "addr:street": "Sechskrügelgasse",
        "check_date:opening_hours": "2022-10-19",
        "fee": "no",
        "level": "0",
        "name": "Bezirksmuseum Landstraße",
        "opening_hours:signed": "no",
        "tourism": "museum",
        "website": "https://www.bezirksmuseum.at/de/bezirksmuseum_3",
        "wikidata": "Q854296"
      }
    },
    {
      "type": "node",
      "id": 928953625,
      "lat": 48.218659,
      "lon": 16.3630536,
      "tags": {
        "addr:city": "Wien",
        "addr:country": "AT",
        "addr:housenumber": "19",
        "addr:postcode": "1090",
        "addr:street": "Berggasse",
        "contact:facebook": "https://www.facebook.com/sigmundfreudmuseum/",
        "contact:instagram": "sigmundfreudmuseum",
        "contact:phone": "+43 1 319 15 96 11",
        "fee": "yes",
        "museum": "person",
        "name": "Sigmund Freud Museum",
        "name:ja": "ジークムント・フロイト博物館",
        "opening_hours": "We-Mo, PH 10:00-18:00",
        "tourism": "museum",
        "website": "https://www.freud-museum.at/",
        "wheelchair": "no",
        "wikidata": "Q694810",
        "wikipedia": "de:Sigmund Freud Museum"
      }
    },
    {
      "type": "node",
      "id": 1022767712,
      "lat": 48.1450007,
      "lon": 16.2924632,
      "tags": {
        "addr:city": "Wien",
        "addr:country": "AT",
        "addr:housenumber": "24",
        "addr:postcode": "1230",
        "addr:street": "Canavesegasse",
        "fee": "no",
        "level": "1;2",
        "name": "Bezirksmuseum Liesing",
        "opening_hours": "We,Sa 09:00-12:00; PH off",
        "tourism": "museum",
        "website": "https://www.bezirksmuseum.at/de/bezirksmuseum_23"
      }
    },
    {
      "type": "node",
      "id": 1157106113,
      "lat": 48.1511401,
      "lon": 16.332612,
      "tags": {
        "addr:city": "Wien",
        "addr:country": "AT",
        "addr:housenumber": "2-8",
        "addr:postcode": "1230",
        "addr:street": "Willendorfer Gasse",
        "fee": "yes",
        "name": "SchokoMuseum",
        "operator": "Heindl",
        "operator:type": "private",
        "toilets:wheelchair": "yes",
        "tourism": "museum",
        "website": "https://www.schokomuseum.at/",
        "wheelchair": "limited",
        "wikidata": "Q17591834"
      }
    },
    {
      "type": "node",
      "id": 1178938407,
      "lat": 48.2547283,
      "lon": 16.3562337,
      "tags": {
        "addr:city": "Wien",
        "addr:country": "AT",
        "addr:housenumber": "6",
        "addr:postcode": "1190",
        "addr:street": "Probusgasse",
        "contact:phone": "+43 664 889 50 801",
        "description:en": "One of the many places Ludwig van Beethoven lived.",
        "fee": "yes",
        "museum": "person",
        "name": "Beethoven Museum",
        "opening_hours": "10:00-13:00,14:00-18:00; Jan 01,May 01,Dec 25 off",
        "operator": "Wien Museum",
        "tourism": "museum",
        "website": "https://www.wienmuseum.at/de/standorte/beethoven-museum",
        "wheelchair": "no",
        "wikidata": "Q1590890"
      }
    },
    {
      "type": "node",
      "id": 1203016181,
      "lat": 48.210451,
      "lon": 16.3743437,
      "tags": {
        "fee": "no",
        "name": "Erlebnis Europa",
        "opening_hours": "PH,Mo-Su 08:00-18:00",
        "tourism": "museum"
      }
    },
    {
      "type": "node",
      "id": 1334741420,
      "lat": 48.2061679,
      "lon": 16.3666909,
      "tags": {
        "amenity": "library",
        "fee": "yes",
        "name": "Prunksaal der Österreichischen Nationalbibliothek",
        "name:de": "Prunksaal der Österreichischen Nationalbibliothek",
        "name:en": "State Hall of the Austrian National Library",
        "name:es": "Biblioteca Nacional de Austria",
        "name:ja": "オーストリア国立図書館 プルンクザール",
        "name:ru": "Австрийская национальная библиотека",
        "name:uk": "Національна бібліотека Австрії",
        "name:zh": "奥地利国家图书馆",
        "opening_hours": "Tu-Su 10:00 - 18:00; Th 10:00 - 21:00",
        "operator": "Österreichische Nationalbibliothek",
        "toilets:wheelchair": "yes",
        "tourism": "museum",
        "website": "https://www.onb.ac.at/",
        "wheelchair": "yes",
        "wikidata": "Q304037",
        "wikipedia": "de:Österreichische Nationalbibliothek"
      }
    },
    {
      "type": "node",
      "id": 1349616220,
      "lat": 48.1838485,
      "lon": 16.3567415,
      "tags": {
        "description:en": "Espresso machines, grinders and exotic accessories from several centuries and many cultures.",
        "fee": "unknown",
        "museum": "coffee",
        "name": "Kaffeemuseum",
        "name:en": "Coffee Museum",
        "opening_hours": "Mo-Su 09:00-15:00",
        "operator": "Österreichisches Gesellschafts- und Wirtschaftsmuseum",
        "start_date": "2003",
        "tourism": "museum",
        "website": "kaffeemuseum.at"
      }
    },
    {
      "type": "node",
      "id": 1462407103,
      "lat": 48.2077381,
      "lon": 16.393268,
      "tags": {
        "addr:housenumber": "28",
        "addr:street": "Löwengasse",
        "check_date": "2022-09-10",
        "description:en": "Paintings by world-famous forgers such as Han van Meegeren, Eric Hebborn. (Source: museum webiste)",
        "fee": "yes",
        "museum": "art",
        "name": "Fälschermuseum",
        "name:en": "Museum of Art Fakes",
        "name:hu": "Hamisítványmúzeum",
        "name:pl": "Muzeum Fałszerstw Sztuki",
        "opening_hours": "Tu-Su 10:00-17:00",
        "operator": "Werkstätte für kunst & architktur",
        "phone": "+43 1 715 22 96",
        "tourism": "museum",
        "website": "https://www.faelschermuseum.com/",
        "wheelchair": "no",
        "wikidata": "Q1459712",
        "wikipedia": "de:Fälschermuseum Wien"
      }
    },
    {
      "type": "node",
      "id": 1723197167,
      "lat": 48.2161968,
      "lon": 16.3947612,
      "tags": {
        "addr:city": "Wien",
        "addr:country": "AT",
        "addr:housenumber": "1",
        "addr:postcode": "1020",
        "addr:street": "Oswald-Thomas-Platz",
        "description:en": "History of Viennese entertainment culture",
        "fee": "yes",
        "name": "Pratermuseum",
        "name:en": "Prater Museum",
        "operator": "Wien Museum",
        "toilets:wheelchair": "yes",
        "tourism": "museum",
        "website": "https://www.wienmuseum.at/de/standorte/pratermuseum",
        "wheelchair": "limited",
        "wikidata": "Q86367511"
      }
    },
    {
      "type": "node",
      "id": 1771329825,
      "lat": 48.1923537,
      "lon": 16.3488063,
      "tags": {
        "addr:city": "Wien",
        "addr:country": "AT",
        "addr:housename": "Marchettischlössl",
        "addr:housenumber": "95",
        "addr:postcode": "1060",
        "addr:street": "Gumpendorfer Straße",
        "check_date": "2023-06-09",
        "description:en": "The national Austrian archive for sound recordings and videos on cultural and contemporary history.",
        "name": "Österreichische Mediathek",
        "name:en": "Austrian Mediathek",
        "old_name": "Österreichische Phonothek",
        "operator": "Technisches Museum Wien mit Österreichischer Mediathek",
        "source:description": "wikipedia:en",
        "start_date": "1960",
        "tourism": "museum",
        "website": "https://www.mediathek.at/",
        "wikipedia": "de:Österreichische Mediathek"
      }
    },
    {
      "type": "node",
      "id": 1868804009,
      "lat": 48.1948767,
      "lon": 16.3390004,
      "tags": {
        "addr:city": "Wien",
        "addr:country": "AT",
        "addr:housenumber": "37",
        "addr:postcode": "1150",
        "addr:street": "Mariahilfer Gürtel",
        "check_date": "2023-03-21",
        "description:en": "3 rooms look at the history of contraception, from ancient Egypt to methods that will be used in the future, by both men and women; the fascinating development of pregnancy tests; and contemporary abortion in light of its development from the laws impleme",
        "fee": "yes",
        "level": "1",
        "name": "Museum für Verhütung und Schwangerschaftsabbruch",
        "name:en": "Museum of Contraception and Abortion",
        "opening_hours": "We-Su 14:00-18:00",
        "operator": "Museum für Verhütung und Schwangerschaftsabbruch",
        "payment:cards": "no",
        "payment:credit_cards": "no",
        "payment:debit_cards": "no",
        "phone": "+43 699 17817804",
        "tourism": "museum",
        "website": "https://www.muvs.org/",
        "wikidata": "Q1954684",
        "wikipedia": "de:Museum für Verhütung und Schwangerschaftsabbruch"
      }
    },
    {
      "type": "node",
      "id": 1957540447,
      "lat": 48.2077678,
      "lon": 16.3745186,
      "tags": {
        "addr:city": "Wien",
        "addr:country": "AT",
        "addr:housenumber": "3",
        "addr:postcode": "1010",
        "addr:street": "Blutgasse",
        "description:en": "\"The museum strives to contribute to world peace by educating the public about peace heroes. \" (Source: museum website)",
        "fee": "unknown",
        "name": "Peace Museum Vienna",
        "short_name": "Peace Museum",
        "tourism": "museum",
        "website": "https://www.peacemuseumvienna.com/"
      }
    },
    {
      "type": "node",
      "id": 1958085082,
      "lat": 48.2106907,
      "lon": 16.3728003,
      "tags": {
        "addr:city": "Wien",
        "addr:country": "AT",
        "addr:housenumber": "3",
        "addr:postcode": "1010",
        "addr:street": "Hoher Markt",
        "check_date": "2022-09-09",
        "fee": "yes",
        "name": "Römermuseum",
        "name:en": "Roman Museum",
        "name:es": "Museo Romano",
        "name:hu": "Ókori Római Múzeum",
        "opening_hours": "PH,Tu-Su 09:00-18:00",
        "toilets:wheelchair": "yes",
        "tourism": "museum",
        "website": "http://www.roemermuseum.at/",
        "wheelchair": "yes",
        "wheelchair:description": "Treppenraupe",
        "wikidata": "Q14912660",
        "wikimedia_commons": "Category:Römermuseum, Vienna",
        "wikipedia": "de:Römermuseum Wien"
      }
    },
    {
      "type": "node",
      "id": 1961802117,
      "lat": 48.2108569,
      "lon": 16.3693285,
      "tags": {
        "addr:city": "Wien",
        "addr:country": "AT",
        "addr:housenumber": "2",
        "addr:postcode": "1010",
        "addr:street": "Schulhof",
        "description:en": "Collection of 3,000 clocks",
        "fee": "yes",
        "level": "0",
        "name": "Uhrenmuseum",
        "name:en": "Clock Museum",
        "name:es": "Museo del Reloj",
        "name:fi": "Kellomuseo (Euroopan suurin)",
        "opening_hours": "PH,Tu-Su 10:00-18:00",
        "operator": "Wien Museum",
        "tourism": "museum",
        "website": "https://www.wienmuseum.at/",
        "wheelchair": "no",
        "wikidata": "Q2474178",
        "wikimedia_commons": "Category:Clock museum, Vienna",
        "wikipedia": "de:Uhrenmuseum (Wien)"
      }
    },
    {
      "type": "node",
      "id": 1970749517,
      "lat": 48.2274836,
      "lon": 16.3552425,
      "tags": {
        "addr:city": "Wien",
        "addr:country": "AT",
        "addr:housenumber": "54",
        "addr:postcode": "1090",
        "addr:street": "Nussdorfer Straße",
        "fee": "yes",
        "level": "1",
        "name": "Schubert Geburtshaus",
        "name:en": "Franz Schubert's birthplace",
        "name:hu": "Schubert szülőháza",
        "note": "Birthplace of famous composer Franz Schubert",
        "operator": "Wien Museum",
        "phone": "+43 1 317 36 01",
        "tourism": "museum",
        "website": "https://www.wienmuseum.at/schubert_geburtshaus",
        "wikidata": "Q28653671"
      }
    },
    {
      "type": "node",
      "id": 2312934835,
      "lat": 48.1966004,
      "lon": 16.4082923,
      "tags": {
        "addr:city": "Wien",
        "addr:country": "AT",
        "addr:postcode": "1030",
        "addr:street": "Ludwig-Koeßler-Platz",
        "alt_name": "Remise Wien",
        "alt_name_1": "remise",
        "alt_name_2": "Verkehrsmuseum Wien",
        "check_date": "2022-12-03",
        "description:en": "Trams and buses, Vienna public transport history, in the former Erdberg tram depot.",
        "fee": "yes",
        "museum": "transport",
        "name": "Verkehrsmuseum Remise",
        "name:de": "Verkehrsmuseum Remise",
        "name:en": "Remise Transport Museum",
        "opening_hours": "We 09:00-18:00, Sa-Su 10:00-18:00",
        "operator": "Wiener Linien",
        "operator:wikidata": "Q668849",
        "payment:mastercard": "yes",
        "payment:visa": "yes",
        "start_date": "2014-22-13",
        "toilets:wheelchair": "yes",
        "tourism": "museum",
        "website": "http://www.remise.wien",
        "wheelchair": "yes",
        "wikidata": "Q1747111",
        "wikipedia": "de:Verkehrsmuseum Remise"
      }
    },
    {
      "type": "node",
      "id": 2323047594,
      "lat": 48.1963339,
      "lon": 16.362283,
      "tags": {
        "addr:city": "Wien",
        "addr:country": "AT",
        "addr:housenumber": "25",
        "addr:postcode": "1040",
        "addr:street": "Preßgasse",
        "check_date:opening_hours": "2023-09-07",
        "description:en": "All about the film classic \"The Third Man\" shot in Vienna 1948 plus everyday live in post-war Vienna (source: museum website)",
        "fee": "yes",
        "museum": "film",
        "name": "Dritte Mann Museum",
        "name:de": "Dritte Mann Museum",
        "name:en": "Third Man Museum",
        "opening_hours": "Sa 14:00-18:00",
        "tourism": "museum",
        "website": "https://www.3mpc.net/",
        "wheelchair": "no"
      }
    },
    {
      "type": "node",
      "id": 2337070756,
      "lat": 48.1897394,
      "lon": 16.3051534,
      "tags": {
        "addr:city": "Wien",
        "addr:country": "AT",
        "addr:housenumber": "59",
        "addr:postcode": "1140",
        "addr:street": "Penzinger Straße",
        "check_date": "2023-07-20",
        "fee": "no",
        "level": "0;-1",
        "name": "Ziegelmuseum",
        "opening_hours": "Su[1,3] 10:00-12:00",
        "tourism": "museum",
        "wheelchair": "yes"
      }
    },
    {
      "type": "node",
      "id": 2498873543,
      "lat": 48.1946102,
      "lon": 16.3615376,
      "tags": {
        "addr:city": "Wien",
        "addr:country": "AT",
        "addr:housenumber": "6",
        "addr:postcode": "1040",
        "addr:street": "Kettenbrückengasse",
        "level": "2",
        "name": "Schubert Sterbewohnung",
        "name:zh": "舒伯特逝世地",
        "operator": "wienmuseum",
        "tourism": "museum",
        "website": "https://www.wienmuseum.at/de/standorte/schubert-sterbewohnung",
        "wheelchair": "no",
        "wikidata": "Q37887731"
      }
    },
    {
      "type": "node",
      "id": 2670820060,
      "lat": 48.2062811,
      "lon": 16.3678033,
      "tags": {
        "addr:city": "Wien",
        "addr:country": "AT",
        "addr:housenumber": "6",
        "addr:postcode": "1010",
        "addr:street": "Josefsplatz",
        "level": "2",
        "name": "Phantastenmuseum",
        "official_name": "Phantastenmuseum Wien",
        "toilets:wheelchair": "yes",
        "tourism": "museum",
        "website": "https://phantastenmuseum.jimdo.com/",
        "wheelchair": "yes",
        "wikidata": "Q1452533"
      }
    },
    {
      "type": "node",
      "id": 2670820061,
      "lat": 48.2115481,
      "lon": 16.3674215,
      "tags": {
        "addr:city": "Wien",
        "addr:country": "AT",
        "addr:housenumber": "7",
        "addr:postcode": "1010",
        "addr:street": "Am Hof",
        "description:en": "Objects showing the history of the Vienna Fire Brigade put together for a 1901 international fire brigade exhibition in Berlin.",
        "fee": "no",
        "name": "Feuerwehrmuseum",
        "name:en": "Fire Brigade Museum",
        "name:hu": "Tűzoltómúzeum",
        "opening_hours": "Tu 14:00-17:00; PH,Su 09:00-12:00",
        "source": "note #118281",
        "start_date": "1901",
        "tourism": "museum",
        "website": "https://www.wien.gv.at/menschen/sicherheit/feuerwehr/museum/",
        "wikidata": "Q38027063"
      }
    },
    {
      "type": "node",
      "id": 2839613052,
      "lat": 48.2024978,
      "lon": 16.3601052,
      "tags": {
        "description:en": "Exhibition space and around 50 iniative/organisations working in the cultural sector. (Source: operator website)",
        "fee": "no",
        "museum": "art",
        "name": "freiraum quartier21",
        "opening_hours": "13:00-19:00",
        "operator": "MuseumsQuartier Errichtungs- und BetriebsgesmbH",
        "tourism": "museum",
        "website": "www.q21.at"
      }
    },
    {
      "type": "node",
      "id": 2839613053,
      "lat": 48.2037673,
      "lon": 16.3587297,
      "tags": {
        "contact:website": "https://www.mqw.at/de/contact/quartier21/",
        "description:en": "modern art with artists in residence.",
        "fee": "unknown",
        "fixme": "better description needed, website has no basic explantion.",
        "museum": "modern art",
        "name": "quartier21",
        "operator": "MuseumsQuartier Errichtungs- und BetriebsgesmbH",
        "tourism": "museum",
        "website": "http://www.q21.at/",
        "wheelchair": "yes"
      }
    },
    {
      "type": "node",
      "id": 2851520081,
      "lat": 48.2520131,
      "lon": 16.3648511,
      "tags": {
        "addr:city": "Wien",
        "addr:country": "AT",
        "addr:housenumber": "7",
        "addr:postcode": "1190",
        "addr:street": "Halteraugasse",
        "fee": "yes",
        "fee:conditional": "no @ (age < 19)",
        "level": "1;2",
        "museum": "history",
        "name": "Das rote Wien - Waschsalon",
        "opening_hours": "Th 13:00-18:00; Su 12:00-16:00",
        "phone": "+43 664 885 40 888",
        "tourism": "museum",
        "website": "https://dasrotewien-waschsalon.at/"
      }
    },
    {
      "type": "node",
      "id": 2901211995,
      "lat": 48.2086835,
      "lon": 16.3741529,
      "tags": {
        "alt_name": "Dom- und Diözesanmuseum",
        "check_date": "2023-02-23",
        "description:en": "Museum about St. Stephen's Catherdral",
        "fee": "unknown",
        "name": "Dom Museum Wien",
        "name:hu": "Dómmúzeum",
        "name:ru": "Дом-музей Вены",
        "opening_hours": "We,Fr-Su 10:00-18:00; Th 10:00-20:00",
        "operator": "Die Erzdiözese Wien",
        "tourism": "museum",
        "website": "https://www.dommuseum.at/",
        "wikidata": "Q1238558"
      }
    },
    {
      "type": "node",
      "id": 3179058124,
      "lat": 48.1907883,
      "lon": 16.3658716,
      "tags": {
        "addr:city": "Wien",
        "addr:country": "AT",
        "addr:housenumber": "4",
        "addr:postcode": "1040",
        "addr:street": "Klagbaumgasse",
        "alt_name": "Tröpferlbadmuseum",
        "description:en": "Local museum of the 4th Viennese district of Wieden.",
        "email": "bm1040@bezirksmuseum.at",
        "fee": "no",
        "level": "0;1",
        "name": "Bezirksmuseum Wieden",
        "name:en": "Wieden District Museum",
        "opening_hours": "Tu 10:00-12:00; Th 18:00-20:00; PH, SH off",
        "phone": "+43 1 5812472",
        "tourism": "museum",
        "website": "https://www.bezirksmuseum.at/de/bezirksmuseum_4",
        "wheelchair": "no",
        "wikidata": "Q108761852",
        "wikipedia": "de:Bezirksmuseum Wieden"
      }
    },
    {
      "type": "node",
      "id": 3179058125,
      "lat": 48.1907492,
      "lon": 16.3659296,
      "tags": {
        "addr:city": "Wien",
        "addr:country": "AT",
        "addr:housenumber": "4",
        "addr:postcode": "1040",
        "addr:street": "Klagbaumgasse",
        "check_date": "2023-06-01",
        "description:en": "Chimney sweep museum",
        "email": "rauchfang@bezirksmuseum.at",
        "fee": "no",
        "level": "2;-1",
        "name": "Wiener Rauchfangkehrermuseum",
        "opening_hours": "Su 10:00-12:00; SH off",
        "phone": "+43 1 7343540",
        "short_name": "Rauchfangkehrermuseum",
        "tourism": "museum",
        "website": "https://www.rauchfangkehrermuseum.at/",
        "wheelchair": "no",
        "wikidata": "Q87482932"
      }
    },
    {
      "type": "node",
      "id": 3332991286,
      "lat": 48.2123903,
      "lon": 16.3622586,
      "tags": {
        "addr:city": "Wien",
        "addr:country": "AT",
        "addr:housenumber": "8",
        "addr:postcode": "1010",
        "addr:street": "Mölker Bastei",
        "description:en": "Composer Ludwig van Beethoven lived here for 8 years.",
        "fee": "yes",
        "level": "4",
        "name": "Beethoven Pasqualatihaus",
        "name:ja": "ベートーベン記念館",
        "name:zh": "貝多芬之家",
        "opening_hours": "PH,Tu-Su 10:00-13:00,14:00-18:00",
        "operator": "Wien Museum",
        "tourism": "museum",
        "website": "https://www.wienmuseum.at/de/standorte/beethoven-pasqualatihaus",
        "wheelchair": "no",
        "wikidata": "Q1434092",
        "wikipedia": "de:Pasqualati-Haus"
      }
    },
    {
      "type": "node",
      "id": 3400007610,
      "lat": 48.1541638,
      "lon": 16.4402565,
      "tags": {
        "contact:email": "museum@bfwien.at",
        "contact:phone": "+43 1 76067",
        "fee": "yes",
        "name": "Bestattungsmuseum",
        "name:en": "Funeral Museum",
        "opening_hours": "Mo-Fr 09:00-16:30",
        "toilets:wheelchair": "yes",
        "tourism": "museum",
        "website": "https://www.bestattungsmuseum.at/",
        "wheelchair": "yes",
        "wikidata": "Q830428",
        "wikipedia": "de:Bestattungsmuseum Wien"
      }
    },
    {
      "type": "node",
      "id": 3437649721,
      "lat": 48.21599,
      "lon": 16.38738,
      "tags": {
        "addr:city": "Wien",
        "addr:country": "AT",
        "addr:housenumber": "54",
        "addr:postcode": "1020",
        "addr:street": "Praterstraße",
        "description:en": "Waltz composer Johann Strauss lived here 7 years and composed \"The Blue Danube\" in 1867. (Source: museum website)",
        "fee": "yes",
        "level": "1",
        "name": "Johann-Strauß-Wohnung",
        "name:en": "Johann Strauss Wohnung",
        "name:hu": "Johann Strauß lakása",
        "operator": "Wien Museum",
        "tourism": "museum",
        "website": "https://www.wienmuseum.at/",
        "wikidata": "Q28651931"
      }
    },
    {
      "type": "node",
      "id": 3443540593,
      "lat": 48.2275463,
      "lon": 16.3553112,
      "tags": {
        "addr:city": "Wien",
        "addr:country": "AT",
        "addr:housenumber": "54",
        "addr:postcode": "1090",
        "addr:street": "Nussdorfer Straße",
        "fee": "yes",
        "level": "1",
        "name": "Stifter-Gedenkräume",
        "operator": "Adalbert-Stifter-Gesellschaft Wien",
        "tourism": "museum",
        "website": "https://www.wienmuseum.at/schubert_geburtshaus"
      }
    },
    {
      "type": "node",
      "id": 3447435748,
      "lat": 48.1853494,
      "lon": 16.311561,
      "tags": {
        "addr:city": "Wien",
        "addr:country": "AT",
        "addr:postcode": "1130",
        "check_date": "2023-05-08",
        "description:en": "Museum and activities for children about life at the Schönbrunn Palace.",
        "email": "kinder@schoenbrunn.at",
        "fee": "yes",
        "level": "0",
        "museum": "history",
        "name": "Kindermuseum",
        "name:cs": "Dětské muzeum",
        "name:en": "Children's Museum",
        "opening_hours": "Mo-Su 10:00-17:00",
        "operator": "Schloß Schönbrunn Kultur- und Betriebsges.m.b.H.",
        "phone": "+43181113344",
        "toilets:wheelchair": "yes",
        "tourism": "museum",
        "website": "https://www.kaiserkinder.at/kindermuseum.html",
        "wheelchair": "yes",
        "wheelchair:description": "Teljesen akadálymentes. Itt a felnőttek is gyerekek lehetnek."
      }
    },
    {
      "type": "node",
      "id": 3461250583,
      "lat": 48.2122111,
      "lon": 16.3416776,
      "tags": {
        "addr:city": "Wien",
        "addr:country": "AT",
        "addr:housenumber": "66",
        "addr:postcode": "1080",
        "addr:street": "Florianigasse",
        "description:en": "\"The collection covers some 100 square metres and focuses on the development of shoemaking and orthopaedic shoemaking through the ages.\"",
        "museum": "shoes",
        "name": "Wiener Schuhmuseum",
        "name:hu": "Bécsi Cipőmúzeum",
        "source:description:en": "http://schuhmuseum.at/en/",
        "tourism": "museum",
        "website": "https://www.schuhmuseum.at/"
      }
    },
    {
      "type": "node",
      "id": 3461251862,
      "lat": 48.216234,
      "lon": 16.3546147,
      "tags": {
        "addr:city": "Wien",
        "addr:country": "AT",
        "addr:housenumber": "3",
        "addr:postcode": "1090",
        "addr:street": "Otto-Wagner-Platz",
        "description:en": "Displays on monetary issues, including monetary history. The exhibits highlight the development of money from its origins to the present day. (Source. operator website)",
        "fee": "no",
        "museum": "speciality",
        "name": "Geldmuseum",
        "name:en": "Money Museum",
        "opening_hours": "Tu-We 09:30-15:30; Th 09:30-17:30; Fr 09:30-13:30",
        "operator": "Österreichische Nationalbank",
        "tourism": "museum",
        "website": "https://www.oenb.at/Ueber-Uns/Geldmuseum.html",
        "wikidata": "Q15811552",
        "wikipedia": "de:Geldmuseum der Oesterreichischen Nationalbank"
      }
    },
    {
      "type": "node",
      "id": 3490627782,
      "lat": 48.2120914,
      "lon": 16.3713095,
      "tags": {
        "addr:city": "Wien",
        "addr:country": "AT",
        "addr:housenumber": "4-6",
        "addr:postcode": "1010",
        "addr:street": "Wipplingerstraße",
        "check_date": "2023-05-11",
        "description:en": "Document archive founded by former members of the Austrian Resistance, victims of Nazi-persecution, and committed scholars from the sciences and humanities.",
        "name": "Dokumentationsarchiv des Österreichischen Widerstandes",
        "name:en": "Documentation Centre of Austrian Resistance",
        "name:es": "Centro de Documentación de la Resistencia Austríaca",
        "opening_hours": "Mo-We,Fr 09:00-17:00; Th 09:00-19:00",
        "short_name": "DÖW",
        "start_date": "1963",
        "tourism": "museum",
        "website": "https://www.doew.at/",
        "wheelchair": "limited"
      }
    },
    {
      "type": "node",
      "id": 3517177085,
      "lat": 48.2020802,
      "lon": 16.3595804,
      "tags": {
        "addr:city": "Wien",
        "addr:country": "AT",
        "addr:housenumber": "1",
        "addr:postcode": "1070",
        "addr:street": "Museumsplatz",
        "description:en": "Austria’s first museum for children, with a focus on the arts. A centre of interaction between children and artists. Artists from a number of different disciplines work with the children on topics relating to science, everyday culture, sociology, philos",
        "fee": "yes",
        "name": "Zoom Kindermuseum",
        "name:hu": "Zoom Gyerekmúzeum",
        "name:ru": "Детский музей",
        "opening_hours": "Tu-Fr 08:30-16:00; Sa,Su,PH 09:45-16:00; PH 12:45-16:30",
        "start_date": "1994",
        "toilets:wheelchair": "yes",
        "tourism": "museum",
        "website": "https://www.kindermuseum.at/",
        "wheelchair": "yes",
        "wikidata": "Q136333"
      }
    },
    {
      "type": "node",
      "id": 3518545681,
      "lat": 48.2076806,
      "lon": 16.3733578,
      "tags": {
        "addr:city": "Wien",
        "addr:country": "AT",
        "addr:floor": "2",
        "addr:housenumber": "7 Stiege I",
        "addr:postcode": "1010",
        "addr:street": "Singerstraße",
        "description:en": "The Treasury of the Teutonic Order (Roman catholic relisgious order)",
        "fee": "yes",
        "name": "Schatzkammer des Deutschen Ordens",
        "name:en": "Treasury of the Teutonic Order",
        "name:hu": "Német Lovagrend Kincstára",
        "name:pl": "Zakon Krzyżacki",
        "name:ru": "Сокровищница Тевтонского Ордена",
        "name:uk": "Скарбниця Тевтонського Ордену",
        "operator": "The Teutonic Order",
        "tourism": "museum",
        "website": "https://www.deutscher-orden.at/",
        "wheelchair": "no"
      }
    },
    {
      "type": "node",
      "id": 3747976274,
      "lat": 48.1828322,
      "lon": 16.3380086,
      "tags": {
        "addr:city": "Wien",
        "addr:country": "AT",
        "addr:housenumber": "13-15",
        "addr:postcode": "1120",
        "addr:street": "Längenfeldgasse",
        "fee": "no",
        "level": "3",
        "name": "Bezirksmuseum Meidling",
        "opening_hours": "We 09:00-12:00,16:00-18:00; Su 09:30-11:30",
        "toilets:wheelchair": "no",
        "tourism": "museum",
        "website": "https://www.bezirksmuseum.at/de/bezirksmuseum_12",
        "wheelchair": "no",
        "wikidata": "Q854307"
      }
    },
    {
      "type": "node",
      "id": 3779752439,
      "lat": 48.1525253,
      "lon": 16.3839954,
      "tags": {
        "addr:city": "Wien",
        "addr:country": "AT",
        "addr:housenumber": "2B",
        "addr:postcode": "1100",
        "addr:street": "Ada-Christen-Gasse",
        "fee": "no",
        "level": "0",
        "name": "Bezirksmuseum Favoriten",
        "opening_hours": "Th 16:00-19:00; PH off; SH off",
        "short_name": "Bezirksmuseum",
        "tourism": "museum",
        "website": "https://www.bezirksmuseum.at/de/bezirksmuseum_10",
        "wikidata": "Q854284"
      }
    },
    {
      "type": "node",
      "id": 3923832255,
      "lat": 48.2105342,
      "lon": 16.3521893,
      "tags": {
        "addr:city": "Wien",
        "addr:country": "AT",
        "addr:housenumber": "18",
        "addr:postcode": "1080",
        "addr:street": "Schmidgasse",
        "contact:email": "bm1080@bezirksmuseum.at",
        "contact:phone": "+43 1 4036415",
        "fee": "no",
        "name": "Bezirksmuseum Josefstadt",
        "tourism": "museum",
        "website": "https://www.bezirksmuseum.at/de/bezirksmuseum_8",
        "wikidata": "Q854291"
      }
    },
    {
      "type": "node",
      "id": 3923955839,
      "lat": 48.2185783,
      "lon": 16.353142,
      "tags": {
        "addr:city": "Wien",
        "addr:country": "AT",
        "addr:housenumber": "2-4, Hof 6",
        "addr:postcode": "1090",
        "addr:street": "Spitalgasse",
        "email": "pas@nhm-wien.ac.at",
        "fee": "yes",
        "name": "Pathologisch-anatomische Sammlung im Narrenturm",
        "name:en": "Pathologic-Anatomical Collection",
        "name:ja": "病理・解剖学博物館",
        "opening_hours": "We 10:00-18:00; Th-Fr 10:00-15:00; Sa 12:00-18:00",
        "operator": "Naturhistorisches Museum Wien",
        "operator:wikidata": "Q688704",
        "phone": "+43 1 521 77 606",
        "photography:inside": "no",
        "source": "http://www.univie.ac.at/Achse/narrenturm/",
        "toilets:wheelchair": "no",
        "tourism": "museum",
        "website": "https://www.nhm-wien.ac.at/forschung/anthropologie/pathologisch-anatomische_sammlung_im_narrenturm",
        "wheelchair": "yes"
      }
    },
    {
      "type": "node",
      "id": 4102220512,
      "lat": 48.2200185,
      "lon": 16.3628193,
      "tags": {
        "addr:city": "Wien",
        "addr:country": "AT",
        "addr:housenumber": "3",
        "addr:postcode": "1090",
        "addr:street": "Müllnergasse",
        "name": "Museum der Johann Strauss Dynastie",
        "name:en": "Johann Strauss Museum",
        "source": "Musik",
        "tourism": "museum",
        "website": "https://www.strauss-museum.at/",
        "wikidata": "Q19829543"
      }
    },
    {
      "type": "node",
      "id": 4185985589,
      "lat": 48.2195474,
      "lon": 16.356311,
      "tags": {
        "addr:city": "Wien",
        "addr:country": "AT",
        "addr:housenumber": "25",
        "addr:postcode": "1090",
        "addr:street": "Währinger Straße",
        "check_date": "2023-10-07",
        "contact:instagram": "https://www.instagram.com/josephinum_mhm",
        "email": "sammlungen@meduniwien.ac.at",
        "fee": "yes",
        "name": "Joesephinum",
        "phone": "+43 1 40 160 26 000",
        "toilets:wheelchair": "yes",
        "tourism": "museum",
        "website": "https://www.josephinum.ac.at/",
        "wheelchair": "yes"
      }
    },
    {
      "type": "node",
      "id": 4396788026,
      "lat": 48.199329,
      "lon": 16.337581,
      "tags": {
        "addr:city": "Wien",
        "addr:country": "AT",
        "addr:housenumber": "11",
        "addr:postcode": "1150",
        "addr:street": "Neubaugürtel",
        "name": "Billardmuseum Weingartner",
        "opening_hours": "Mo-Fr 09:00-18:00; Sa 09:30-12:30",
        "tourism": "museum",
        "website": "https://www.billard-weingartner.at/"
      }
    },
    {
      "type": "node",
      "id": 4580270557,
      "lat": 48.1938368,
      "lon": 16.3527187,
      "tags": {
        "addr:city": "Wien",
        "addr:country": "AT",
        "addr:housenumber": "8",
        "addr:postcode": "1060",
        "addr:street": "Mollardgasse",
        "check_date:opening_hours": "2023-11-01",
        "fee": "no",
        "level": "3",
        "name": "Wiener Phonomuseum",
        "opening_hours": "We 15:00-19:00",
        "tourism": "museum",
        "website": "https://www.bezirksmuseum.at/de/sondermuseum_phono",
        "wikidata": "Q86440123"
      }
    },
    {
      "type": "node",
      "id": 4692539245,
      "lat": 48.2429842,
      "lon": 16.3556986,
      "tags": {
        "addr:city": "Wien",
        "addr:country": "AT",
        "addr:housenumber": "96",
        "addr:postcode": "1190",
        "addr:street": "Döblinger Hauptstraße",
        "level": "0;-1",
        "name": "Weinbaumuseum",
        "opening_hours": "\"Nur nach Terminvereinbarung\"",
        "tourism": "museum",
        "website": "https://vivent.at/orte/weinbaumuseum/"
      }
    },
    {
      "type": "node",
      "id": 4780892914,
      "lat": 48.2030396,
      "lon": 16.3544109,
      "tags": {
        "addr:city": "Wien",
        "addr:country": "AT",
        "addr:housenumber": "8",
        "addr:postcode": "1070",
        "addr:street": "Stiftgasse",
        "level": "1",
        "name": "Bezirksmuseum Neubau",
        "tourism": "museum",
        "website": "https://www.bezirksmuseum.at/de/bezirksmuseum_7",
        "wikidata": "Q854306"
      }
    },
    {
      "type": "node",
      "id": 4830522272,
      "lat": 48.216508,
      "lon": 16.3798939,
      "tags": {
        "addr:city": "Wien",
        "addr:country": "AT",
        "addr:housenumber": "9",
        "addr:postcode": "1020",
        "addr:street": "Karmelitergasse",
        "check_date:opening_hours": "2023-04-15",
        "fee": "no",
        "name": "Bezirksmuseum Leopoldstadt",
        "opening_hours": "We 16:00-18:30; Su 10:00-13:00",
        "tourism": "museum",
        "website": "https://www.bezirksmuseum.at/de/bezirksmuseum_2",
        "wikidata": "Q854297"
      }
    },
    {
      "type": "node",
      "id": 5111578474,
      "lat": 48.2096524,
      "lon": 16.3669271,
      "tags": {
        "addr:city": "Wien",
        "addr:country": "AT",
        "addr:housenumber": "4",
        "addr:postcode": "1010",
        "addr:street": "Wallnerstraße",
        "email": "info@museumderillusionen.at",
        "fee": "yes",
        "internet_access": "wlan",
        "name": "Museum der Illusionen",
        "name:cs": "Muzeum kouzel",
        "name:en": "Museum of Illusions",
        "opening_hours": "Mo-Su 10:00-21:00",
        "tourism": "museum",
        "website": "https://museumderillusionen.at/",
        "wheelchair": "limited"
      }
    },
    {
      "type": "node",
      "id": 5143457034,
      "lat": 48.2330286,
      "lon": 16.34076,
      "tags": {
        "name": "Kunstsammlung Arik Brauer",
        "source": "https://www.ikg-wien.at/event/besuch-im-privatmuseum-von-prof-arik-brauer/",
        "tourism": "museum"
      }
    },
    {
      "type": "node",
      "id": 5146842774,
      "lat": 48.2053059,
      "lon": 16.3650424,
      "tags": {
        "addr:city": "Wien",
        "addr:country": "AT",
        "addr:housenumber": "25",
        "addr:postcode": "1010",
        "addr:street": "Heldenplatz",
        "email": "papyrus@onb.ac.at",
        "fee": "yes",
        "name": "Papyrusmuseum",
        "name:de": "Papyrusmuseum",
        "name:en": "Papyrus Collection",
        "name:es": "Museo del Papiro",
        "name:ru": "Коллекция папирусов",
        "toilets:wheelchair": "yes",
        "tourism": "museum",
        "website": "https://www.onb.ac.at/museen/papyrusmuseum/",
        "wheelchair": "yes",
        "wikidata": "Q2051125",
        "wikipedia": "de:Papyrussammlung und Papyrusmuseum Wien"
      }
    },
    {
      "type": "node",
      "id": 5284417755,
      "lat": 48.2115299,
      "lon": 16.3751562,
      "tags": {
        "addr:city": "Wien",
        "addr:country": "AT",
        "addr:housenumber": "3",
        "addr:postcode": "1010",
        "addr:street": "Rabensteig",
        "check_date": "2022-09-09",
        "check_date:opening_hours": "2023-04-29",
        "email": "museum@vwi.ac.at",
        "fee": "no",
        "name": "Museum Simon Wiesenthal",
        "opening_hours": "Mo-Fr 10:00-18:00; PH off",
        "operator": "Wiener Wiesenthal Institut für Holocaust-Studien",
        "tourism": "museum",
        "website": "https://www.vwi.ac.at/index.php/institut/museum-simon-wiesenthal"
      }
    },
    {
      "type": "node",
      "id": 5431583714,
      "lat": 48.2618904,
      "lon": 16.4016223,
      "tags": {
        "addr:city": "Wien",
        "addr:country": "AT",
        "addr:housenumber": "5",
        "addr:postcode": "1210",
        "addr:street": "Floridsdorfer Markt",
        "name": "Marktamtsmuseum",
        "opening_hours": "\"nur gegen telefonische Voranmeldung\"",
        "tourism": "museum",
        "website": "https://www.wien.gv.at/freizeit/einkaufen/maerkte/geschichte/marktamtsmuseum.html",
        "wikidata": "Q86427978"
      }
    },
    {
      "type": "node",
      "id": 5440791023,
      "lat": 48.2046375,
      "lon": 16.3574924,
      "tags": {
        "fee": "no",
        "layer": "-1",
        "museum": "transport",
        "name": "Infocenter U2/U5",
        "opening_hours": "Tu,Th 16:00-19:00",
        "tourism": "museum",
        "website": "https://www.wienerlinien.at/U2U5",
        "wheelchair": "yes"
      }
    },
    {
      "type": "node",
      "id": 5709716419,
      "lat": 48.2208856,
      "lon": 16.3545513,
      "tags": {
        "alt_name": "Sparefrohmuseum",
        "fixme": "Lage",
        "name": "Sparefroh-Haus",
        "tourism": "museum",
        "website": "https://www.bezirksmuseum-alsergrund.at/sparefroh-haus/weltspartagsgeschenke-sammlung/"
      }
    },
    {
      "type": "node",
      "id": 5717928543,
      "lat": 48.2174368,
      "lon": 16.3964846,
      "tags": {
        "addr:city": "Wien",
        "addr:country": "AT",
        "addr:housenumber": "5",
        "addr:postcode": "1020",
        "addr:street": "Riesenradplatz",
        "fee": "yes",
        "museum": "wax",
        "name": "Madame Tussauds Wien",
        "name:en": "Madame Tussauds Vienna",
        "toilets:wheelchair": "yes",
        "tourism": "museum",
        "website": "https://www.madametussauds.com/wien/",
        "wheelchair": "yes",
        "wikidata": "Q28549691",
        "wikipedia": "en:Madame Tussauds Vienna"
      }
    },
    {
      "type": "node",
      "id": 6036965198,
      "lat": 48.2049335,
      "lon": 16.3720013,
      "tags": {
        "addr:city": "Wien",
        "addr:country": "AT",
        "addr:housenumber": "4a",
        "addr:postcode": "1010",
        "addr:street": "Johannesgasse",
        "email": "reservierung@filmarchiv.at",
        "fee": "yes",
        "museum": "film_history",
        "name": "Metro Kinokulturhaus",
        "opening_hours": "Mo-Su 15:00-21:00",
        "operator": "Filmarchiv Austria",
        "operator:type": "public",
        "payment:cash": "yes",
        "payment:coins": "yes",
        "payment:credit_cards": "yes",
        "payment:debit_cards": "yes",
        "phone": "+43 (0)1 512 18 03",
        "screen": "2",
        "tourism": "museum",
        "website": "https://www.filmarchiv.at",
        "wheelchair": "yes",
        "wikidata": "Q2779313"
      }
    },
    {
      "type": "node",
      "id": 6074210144,
      "lat": 48.1967681,
      "lon": 16.3496994,
      "tags": {
        "addr:city": "Wien",
        "addr:country": "AT",
        "addr:housenumber": "26",
        "addr:postcode": "1060",
        "addr:street": "Esterházygasse",
        "fee": "no",
        "name": "Condomi-Museum",
        "note": "im \"Liebenswert\" gelegen",
        "opening_hours": "Mo-Fr 12:00-18:00, Sa 12:00-17:00",
        "tourism": "museum",
        "website": "http://www.condomi-plus-herz.at/de/museum/kondommuseum/",
        "wheelchair": "yes"
      }
    },
    {
      "type": "node",
      "id": 6264770687,
      "lat": 48.2060826,
      "lon": 16.3541613,
      "tags": {
        "addr:city": "Wien",
        "addr:country": "AT",
        "addr:housenumber": "4",
        "addr:postcode": "1070",
        "addr:street": "Mechitaristengasse",
        "name": "Museum der Mechitharisten-Congregation",
        "phone": "+43 1 5236417",
        "tourism": "museum",
        "website": "http://mechitharisten.org"
      }
    },
    {
      "type": "node",
      "id": 6265764105,
      "lat": 48.2633274,
      "lon": 16.3939126,
      "tags": {
        "addr:city": "Wien",
        "addr:country": "AT",
        "addr:housenumber": "33",
        "addr:postcode": "1210",
        "addr:street": "Prager Straße",
        "contact:email": "bm1210@bezirksmuseum.at",
        "contact:mobile": "+43 664 556 69 73",
        "contact:phone": "+43 1 270 51 94",
        "fee": "no",
        "name": "Bezirksmuseum Floridsdorf",
        "opening_hours": "Mo off; Tu 15:00-17:00; We-Sa off; Su 10:00-12:00; PH off",
        "tourism": "museum",
        "website": "https://www.bezirksmuseum.at/de/bezirksmuseum_21/bezirksmuseum/",
        "wikidata": "Q854285",
        "wikipedia": "de:Bezirksmuseum Floridsdorf"
      }
    },
    {
      "type": "node",
      "id": 6419199928,
      "lat": 48.2117052,
      "lon": 16.304781,
      "tags": {
        "addr:city": "Wien",
        "addr:housenumber": "58",
        "addr:postcode": "1160",
        "addr:street": "Montleartstraße",
        "fee": "no",
        "museum": "railway",
        "name": "ModellBauGruppe Ottakring (MBG Ottakring)",
        "opening_hours": "Su[1] 14:00-18:00 open \"first Sunday in the month\"; PH off",
        "opening_hours:covid19": "closed",
        "tourism": "museum",
        "website": "https://www.mbg1160.at"
      }
    },
    {
      "type": "node",
      "id": 7067403653,
      "lat": 48.2169508,
      "lon": 16.3598321,
      "tags": {
        "contact:website": "http://www.drogistenmuseum.at",
        "fee": "yes",
        "name": "Österreichisches Pharma- und Drogistenmuseum",
        "opening_hours": "Sep-Jun We[1] 14:00-17:00; Sep-Jun We[3] 14:00-17:00",
        "tourism": "museum",
        "website": "http://www.drogistenmuseum.at/"
      }
    },
    {
      "type": "node",
      "id": 7252011789,
      "lat": 48.2250996,
      "lon": 16.3817687,
      "tags": {
        "name": "Atelier Augarten",
        "tourism": "museum",
        "wheelchair": "limited"
      }
    },
    {
      "type": "node",
      "id": 8483546911,
      "lat": 48.2013787,
      "lon": 16.3697485,
      "tags": {
        "addr:city": "Wien",
        "addr:country": "AT",
        "addr:housenumber": "2-4",
        "addr:postcode": "1010",
        "addr:street": "Bösendorferstraße",
        "contact:email": "office@3dpicart-museum.at",
        "name": "3D PicArt Museum",
        "operator": "3D PicArt Museum GmbH",
        "phone:mobile": "+43 681 20557732",
        "tourism": "museum",
        "website": "https://www.3dpicart-museum.at/"
      }
    },
    {
      "type": "node",
      "id": 8826202475,
      "lat": 48.1835936,
      "lon": 16.3219481,
      "tags": {
        "addr:city": "Wien",
        "addr:housenumber": "262",
        "addr:postcode": "1120",
        "addr:street": "Schönbrunner Straße",
        "fee": "yes",
        "name": "Zauberkasten Museum",
        "opening_hours": "1. Sonntag im Monat 10:00-16:00",
        "tourism": "museum",
        "website": "http://www.zauberkasten-museum.at/"
      }
    },
    {
      "type": "node",
      "id": 8929017719,
      "lat": 48.2082448,
      "lon": 16.3682446,
      "tags": {
        "addr:city": "Wien",
        "addr:housenumber": "10a",
        "addr:postcode": "1010",
        "addr:street": "Habsburgergasse",
        "fee": "yes",
        "name": "Time Travel Vienna",
        "opening_hours": "Mo-Su 10:00-20:00",
        "tourism": "museum",
        "website": "https://www.timetravel-vienna.at/",
        "wheelchair": "no",
        "wikidata": "Q64760462",
        "wikipedia": "de:Time Travel Vienna"
      }
    },
    {
      "type": "node",
      "id": 9821010400,
      "lat": 48.2038248,
      "lon": 16.3678443,
      "tags": {
        "addr:city": "Wien",
        "addr:housenumber": "3",
        "addr:postcode": "1010",
        "addr:street": "Hanuschgasse",
        "fee": "yes",
        "museum": "art",
        "name": "Heidi Horten Collection",
        "opening_hours": "We-Mo 11:00-19:00",
        "operator": "Heidi Horten Collection",
        "operator:type": "private",
        "source": "https://hortencollection.com",
        "tourism": "museum",
        "website": "https://hortencollection.com/"
      }
    },
    {
      "type": "node",
      "id": 9851414548,
      "lat": 48.2436819,
      "lon": 16.4308463,
      "tags": {
        "contact:email": "museum@ma42.wien.gv.at",
        "fee": "no",
        "name": "Österreichisches Gartenbaumuseum",
        "opening_hours": "Mo-Fr 08:00-15:00;Th[1] 08:00-18:00",
        "subject": "nature",
        "tourism": "museum",
        "website": "https://www.wien.gv.at/umwelt/parks/gartenbaumuseum/",
        "wikidata": "Q306615",
        "wikimedia_commons": "Category:Orangerie Kagran",
        "wikipedia": "de:Österreichisches Gartenbaumuseum"
      }
    },
    {
      "type": "node",
      "id": 9983513676,
      "lat": 48.2006466,
      "lon": 16.3716055,
      "tags": {
        "fee": "yes",
        "museum": "art",
        "name": "Albertina modern",
        "opening_hours": "Mo-Su 10:00-18:00",
        "related:wikipedia": "de:Albertina (Wien)",
        "toilets": "yes",
        "toilets:access": "customers",
        "tourism": "museum",
        "website": "https://www.albertina.at/en/albertina-modern/",
        "wheelchair": "yes",
        "wikidata": "Q83423523"
      }
    },
    {
      "type": "node",
      "id": 10130867580,
      "lat": 48.2063547,
      "lon": 16.3720078,
      "tags": {
        "addr:city": "Wien",
        "addr:housenumber": "19",
        "addr:postcode": "1010",
        "addr:street": "Kärntner Straße",
        "changing_table": "yes",
        "changing_table:location": "wheelchair_toilet",
        "check_date": "2023-11-04",
        "contact:facebook": "https://m.facebook.com/MythosMozart",
        "contact:instagram": "mythosmozart",
        "fee": "yes",
        "museum": "person",
        "name": "Mythos Mozart",
        "opening_hours": "Mo-Fr 10:00-20:00; Sa-Su,PH 10:00-18:00",
        "phone": "+43 1 93056800",
        "tourism": "museum",
        "website": "https://mythos-mozart.com/",
        "wheelchair": "yes"
      }
    },
    {
      "type": "node",
      "id": 10138397168,
      "lat": 48.2037525,
      "lon": 16.3731158,
      "tags": {
        "UID": "ATU57380300",
        "addr2:city": "Wien",
        "addr2:housenumber": "20",
        "addr2:postcode": "1010",
        "addr2:street": "Annagasse",
        "addr:city": "Wien",
        "addr:country": "AT",
        "addr:housenumber": "30",
        "addr:postcode": "1010",
        "addr:street": "Seilerstätte",
        "alt_name": "Erzherzog-Karl-Palais;Palais Ypsilanti",
        "description:en": "Sound and music.",
        "email": "info@hdm.at",
        "fax": "+43 (0)1 5134850 - 48",
        "fee": "yes",
        "museum": "speciality",
        "name": "Haus der Musik",
        "name:en": "House of Music",
        "name:ru": "Дом музыки",
        "name:uk": "Будинок Музики",
        "name:zh": "音乐之家",
        "opening_hours": "Mo-Su 10:00-22:59",
        "operator": "Wien Holding",
        "phone": "+43 (0)1 5134850",
        "start_date": "2000",
        "toilets:wheelchair": "yes",
        "tourism": "museum",
        "website": "https://www.hausdermusik.com/",
        "wheelchair": "yes",
        "wikidata": "Q351228",
        "wikipedia": "de:Haus der Musik"
      }
    },
    {
      "type": "node",
      "id": 10616181547,
      "lat": 48.2039972,
      "lon": 16.3854786,
      "tags": {
        "contact:email": "boehmerwaldmuseum@aon.at",
        "contact:phone": "+43 664 8888 2824",
        "name": "Böhmerwaldmuseum Wien",
        "tourism": "museum",
        "website": "https://www.boehmerwaldmuseum.at/"
      }
    },
    {
      "type": "node",
      "id": 10814863863,
      "lat": 48.1890664,
      "lon": 16.3511231,
      "tags": {
        "check_date": "2023-04-15",
        "fee": "yes",
        "name": "Chocolate museum Vienna",
        "opening_hours": "10:00-18:00",
        "tourism": "museum",
        "website": "https://chocolate-museum.wien/"
      }
    },
    {
      "type": "node",
      "id": 10916600714,
      "lat": 48.1890664,
      "lon": 16.351123,
      "tags": {
        "check_date": "2023-04-15",
        "fee": "yes",
        "name": "Chocolate museum Vienna",
        "opening_hours": "10:00-18:00",
        "tourism": "museum",
        "website": "https://chocolate-museum.wien/"
      }
    },
    {
      "type": "node",
      "id": 10990087410,
      "lat": 48.2135828,
      "lon": 16.3736875,
      "tags": {
        "addr:housenumber": "6",
        "addr:street": "Salztorgasse",
        "alt_name": "Gedenkstätte für die Opfer des österreichischen Freiheitskampfes 1938-1945",
        "check_date": "2023-06-19",
        "contact:phone": "+43 1 2289469",
        "contact:website": "https://doew.at/memorial-salztorgasse",
        "fee": "no",
        "name": "Gedenkstätte für die Opfer der Gestapo Wien",
        "opening_hours": "Auf Anfrage",
        "operator": "Dokumentationsarchiv des österreichischen Widerstandes",
        "tourism": "museum",
        "wheelchair": "no"
      }
    },
    {
      "type": "node",
      "id": 11150632086,
      "lat": 48.2293676,
      "lon": 16.3745201,
      "tags": {
        "addr:city": "Wien",
        "addr:housenumber": "14",
        "addr:postcode": "1200",
        "addr:street": "Karajangasse",
        "contact:youtube": "https://www.youtube.com/channel/UCskHOJlyTItC8RDp3Kcioiw",
        "description": "In der unterrichtsfreien Zeit bleibt die Gedenkstätte Karajangasse geschlossen.",
        "museum": "history",
        "name": "Gedenkstätte Karajangasse",
        "opening_hours": "Th 16:00-20:00",
        "start_date": "1999",
        "tourism": "museum",
        "url": "https://www.geschichtewiki.wien.gv.at/Gedenkst%c3%a4tte_Gestapo-Anhaltelager_Karajangasse",
        "website": "https://www.gymnasium-am-augarten.at/gedenkstaette/"
      }
    },
    {
      "type": "node",
      "id": 11210347368,
      "lat": 48.1988913,
      "lon": 16.3840552,
      "tags": {
        "addr:housenumber": "37",
        "addr:street": "Reisnerstraße",
        "check_date": "2023-09-19",
        "email": "office@haus-hofmannsthal.at",
        "fee": "yes",
        "level": "0",
        "museum": "person",
        "name": "Salon Hofmannsthal",
        "opening_hours": "Mo, We 10:00-14:00; Tu 14:00-18:00; PH off",
        "operator": "Verein der Freunde Hugo von Hofmannsthals",
        "operator:type": "community",
        "tourism": "museum",
        "website": "https://haus-hofmannsthal.jimdofree.com/salon-hofmannsthal/"
      }
    },
    {
      "type": "node",
      "id": 11304837473,
      "lat": 48.2298118,
      "lon": 16.5103981,
      "tags": {
        "fee": "yes",
        "name": "Dialog im Dunkeln",
        "opening_hours": "Tu-Fr 09:00-18:00; Sa 11:00-18:00",
        "start_date": "2023-11-09",
        "tourism": "museum",
        "website": "https://imdunkeln.at/",
        "wikidata": "Q457196",
        "wikipedia": "de:Dialog im Dunkeln"
      }
    },
    {
      "type": "node",
      "id": 11332468164,
      "lat": 48.2402443,
      "lon": 16.3553846,
      "tags": {
        "addr:housenumber": "76",
        "addr:street": "Döblinger Hauptstraße",
        "check_date": "2023-11-07",
        "contact:website": "https://www.houseofstrauss.at/",
        "name": "House Of Strauss",
        "opening_hours": "PH 10:00-17:00; Tu-Su 10:00-18:00",
        "tourism": "museum"
      }
    },
    {
      "type": "node",
      "id": 11357982388,
      "lat": 48.2119107,
      "lon": 16.3692172,
      "tags": {
        "description:en": "Branch of the Jewish Museum Vienna about the medieval Jewish community of Vienna bfore their murder and expulsion in 1420-21. A synagogue lies under Judenplatz and was excavated in 1995. (Soure: website)",
        "fee": "yes",
        "name": "Jüdisches Museum Judenplatz",
        "name:hu": "Museum Judenplatz - középkori zsidó múzeum",
        "name:ru": "Еврейская площадь",
        "note": "https://www.openstreetmap.org/note/3417634",
        "opening_hours": "Mo-Th,Su 10:00-18:00; Fr 10:00-17:00",
        "operator": "Jüdisches Museum der Stadt Wien",
        "short_name": "Museum Judenplatz",
        "start_date": "2000",
        "tourism": "museum",
        "website": "https://www.jmw.at/",
        "wikidata": "Q1716827",
        "wikipedia": "de:Jüdisches Museum Wien"
      }
    },
    {
      "type": "node",
      "id": 11411007720,
      "lat": 48.2100802,
      "lon": 16.3650822,
      "tags": {
        "fee": "no",
        "museum": "art",
        "name": "Kunstraum Niederösterreich",
        "opening_hours": "Tu-Fr 11:00-19:00, Sa 11:00-15:00; So, Mo, PH off",
        "tourism": "museum"
      }
    },
    {
      "type": "way",
      "id": 5887599,
      "bounds": {
        "minlat": 48.1913144,
        "minlon": 16.3800659,
        "maxlat": 48.1917635,
        "maxlon": 16.3817399
      },
      "nodes": [
        47928327,
        3761804045,
        47928350,
        47928369,
        3761814974,
        47928376,
        47928382,
        47928403,
        47928409,
        47928414,
        47928418,
        47928429,
        47928434,
        47928440,
        3761981785,
        3761804039,
        3761981800,
        47928450,
        47928457,
        47928469,
        47928474,
        7554560371,
        2081207167,
        47928480,
        7554560372,
        2081207165,
        47928486,
        47928508,
        7554560732,
        7554560729,
        47928512,
        2081207163,
        1601118245,
        2081207159,
        47928534,
        7554560730,
        7554560731,
        47928557,
        47928561,
        2081207152,
        7554560373,
        47928566,
        47928571,
        7554560374,
        2081207149,
        47928577,
        47928587,
        47928594,
        47926207,
        3761815033,
        2081207110,
        47928251,
        47928264,
        47928284,
        47928302,
        47928323,
        47928327
      ],
      "geometry": [
        {
          "lat": 48.191375,
          "lon": 16.3808225
        },
        {
          "lat": 48.1913718,
          "lon": 16.3808274
        },
        {
          "lat": 48.1913656,
          "lon": 16.3808368
        },
        {
          "lat": 48.1913853,
          "lon": 16.3810388
        },
        {
          "lat": 48.191393,
          "lon": 16.3810428
        },
        {
          "lat": 48.1913975,
          "lon": 16.3810452
        },
        {
          "lat": 48.1914476,
          "lon": 16.3810342
        },
        {
          "lat": 48.1915011,
          "lon": 16.3815872
        },
        {
          "lat": 48.1914775,
          "lon": 16.3815918
        },
        {
          "lat": 48.191456,
          "lon": 16.3816376
        },
        {
          "lat": 48.191463,
          "lon": 16.381709
        },
        {
          "lat": 48.1914903,
          "lon": 16.3817399
        },
        {
          "lat": 48.1915265,
          "lon": 16.3817327
        },
        {
          "lat": 48.191548,
          "lon": 16.3816915
        },
        {
          "lat": 48.1915863,
          "lon": 16.3816829
        },
        {
          "lat": 48.1916011,
          "lon": 16.3816791
        },
        {
          "lat": 48.1916152,
          "lon": 16.3816762
        },
        {
          "lat": 48.1916637,
          "lon": 16.3816652
        },
        {
          "lat": 48.1916908,
          "lon": 16.3816957
        },
        {
          "lat": 48.1917269,
          "lon": 16.3816886
        },
        {
          "lat": 48.1917497,
          "lon": 16.3816436
        },
        {
          "lat": 48.1917491,
          "lon": 16.3816351
        },
        {
          "lat": 48.1917635,
          "lon": 16.3816319
        },
        {
          "lat": 48.1917585,
          "lon": 16.3815796
        },
        {
          "lat": 48.1917433,
          "lon": 16.3815823
        },
        {
          "lat": 48.1917425,
          "lon": 16.3815738
        },
        {
          "lat": 48.1917141,
          "lon": 16.3815409
        },
        {
          "lat": 48.1916905,
          "lon": 16.3815451
        },
        {
          "lat": 48.1916687,
          "lon": 16.381323
        },
        {
          "lat": 48.1916776,
          "lon": 16.381321
        },
        {
          "lat": 48.1916504,
          "lon": 16.3810311
        },
        {
          "lat": 48.1916976,
          "lon": 16.380974
        },
        {
          "lat": 48.1916888,
          "lon": 16.38088
        },
        {
          "lat": 48.1916772,
          "lon": 16.3807567
        },
        {
          "lat": 48.1916209,
          "lon": 16.3807257
        },
        {
          "lat": 48.1915926,
          "lon": 16.3804393
        },
        {
          "lat": 48.1915835,
          "lon": 16.3804412
        },
        {
          "lat": 48.191562,
          "lon": 16.3802181
        },
        {
          "lat": 48.1915846,
          "lon": 16.3802137
        },
        {
          "lat": 48.1916072,
          "lon": 16.3801688
        },
        {
          "lat": 48.1916064,
          "lon": 16.38016
        },
        {
          "lat": 48.1916208,
          "lon": 16.3801569
        },
        {
          "lat": 48.1916162,
          "lon": 16.3801044
        },
        {
          "lat": 48.191601,
          "lon": 16.3801071
        },
        {
          "lat": 48.1916003,
          "lon": 16.3800989
        },
        {
          "lat": 48.1915719,
          "lon": 16.3800659
        },
        {
          "lat": 48.191535,
          "lon": 16.3800739
        },
        {
          "lat": 48.1915163,
          "lon": 16.380114
        },
        {
          "lat": 48.1913987,
          "lon": 16.3801404
        },
        {
          "lat": 48.191372,
          "lon": 16.3801102
        },
        {
          "lat": 48.1913358,
          "lon": 16.3801173
        },
        {
          "lat": 48.1913144,
          "lon": 16.3801636
        },
        {
          "lat": 48.1913212,
          "lon": 16.3802346
        },
        {
          "lat": 48.1913485,
          "lon": 16.3802654
        },
        {
          "lat": 48.1913732,
          "lon": 16.3802606
        },
        {
          "lat": 48.191426,
          "lon": 16.3808125
        },
        {
          "lat": 48.191375,
          "lon": 16.3808225
        }
      ],
      "tags": {
        "alt_name": "Belvedere Upper Palace;美景宫上宫",
        "architect": "Johann Lucas von Hildebrandt",
        "building": "castle",
        "castle_type": "stately",
        "castle_type:de": "schloss",
        "changing_table": "yes",
        "description:en": "Baroque palace also housing a collection of Austrian & international paintings. Highlights: Gustav Klimt’s \"The Kiss\" and \"Judith\"",
        "fee": "yes",
        "fixme": "changing_table:location",
        "historic": "castle",
        "name": "Oberes Belvedere",
        "name:de": "Oberes Belvedere",
        "name:en": "Upper Belvedere",
        "name:es": "Alto Belvedere",
        "name:ja": "ベルヴェデーレ宮殿（上宮）",
        "name:ru": "Верхний Бельведер",
        "name:zh": "美景宫",
        "opening_hours": "Mo-Su 08:00-18:00",
        "operator": "Österreichische Galerie Belvedere",
        "related:wikipedia": "de:Schloss Belvedere",
        "toilets:wheelchair": "yes",
        "tourism": "museum",
        "website": "https://www.belvedere.at/",
        "wheelchair": "yes",
        "wikidata": "Q87193291",
        "wikimedia_commons": "Category:Upper Belvedere, main view"
      }
    },
    {
      "type": "way",
      "id": 8097153,
      "bounds": {
        "minlat": 48.1989309,
        "minlon": 16.3725392,
        "maxlat": 48.1994926,
        "maxlon": 16.3733532
      },
      "nodes": [
        60664105,
        311075072,
        311075073,
        60664106,
        9019691602,
        11556776253,
        1532904143,
        11556776251,
        11556776254,
        11504305964,
        1532904145,
        1772629749,
        1532904147,
        1532904146,
        60664107,
        60565863,
        10101996831,
        10101996832,
        60664105
      ],
      "geometry": [
        {
          "lat": 48.1989309,
          "lon": 16.3732905
        },
        {
          "lat": 48.1989369,
          "lon": 16.3731759
        },
        {
          "lat": 48.1989508,
          "lon": 16.3729074
        },
        {
          "lat": 48.1989574,
          "lon": 16.3727829
        },
        {
          "lat": 48.1989636,
          "lon": 16.3727836
        },
        {
          "lat": 48.1991413,
          "lon": 16.3728045
        },
        {
          "lat": 48.1992853,
          "lon": 16.3728214
        },
        {
          "lat": 48.1992868,
          "lon": 16.3727937
        },
        {
          "lat": 48.1992873,
          "lon": 16.3727841
        },
        {
          "lat": 48.1992966,
          "lon": 16.3726149
        },
        {
          "lat": 48.1993008,
          "lon": 16.3725392
        },
        {
          "lat": 48.1994238,
          "lon": 16.3725522
        },
        {
          "lat": 48.1994213,
          "lon": 16.3726241
        },
        {
          "lat": 48.1994117,
          "lon": 16.3728373
        },
        {
          "lat": 48.1994926,
          "lon": 16.3728457
        },
        {
          "lat": 48.1994662,
          "lon": 16.3733532
        },
        {
          "lat": 48.1993213,
          "lon": 16.3733362
        },
        {
          "lat": 48.1990568,
          "lon": 16.3733052
        },
        {
          "lat": 48.1989309,
          "lon": 16.3732905
        }
      ],
      "tags": {
        "addr:city": "Wien",
        "addr:country": "AT",
        "addr:housenumber": "8",
        "addr:postcode": "1040",
        "addr:street": "Karlsplatz",
        "building": "yes",
        "description:en": "History of the city. Main building of the Vienna Museum. The group includes numerous specialised museums, musicians' residences and archaeological excavations.",
        "fee": "yes",
        "heritage": "2",
        "heritage:operator": "bda",
        "image": "http://upload.wikimedia.org/wikipedia/commons/1/1c/Wien-Museum.jpg",
        "name": "Wien Museum Karlsplatz",
        "name:zh": "維也納博物館",
        "note:height": "Höhe bezieht sich auf Höhe der Aussichtsplatform",
        "opening_hours": "Tu-Su,PH 10:00-18:00",
        "operator": "Museen der Stadt Wien",
        "ref:at:bda": "1084",
        "source:description:en": "wikiepdia:en",
        "toilets:wheelchair": "yes",
        "tourism": "museum",
        "website": "https://www.wienmuseum.at/",
        "wheelchair": "yes",
        "wikidata": "Q505873",
        "wikipedia": "de:Wien Museum"
      }
    },
    {
      "type": "way",
      "id": 8097556,
      "bounds": {
        "minlat": 48.2035808,
        "minlon": 16.3574374,
        "maxlat": 48.2039553,
        "maxlon": 16.3582024
      },
      "nodes": [
        60667060,
        316522825,
        60667057,
        316522824,
        4546898446,
        60667061,
        1566470508,
        2081381945,
        316522827,
        60667059,
        60667060
      ],
      "geometry": [
        {
          "lat": 48.2039553,
          "lon": 16.3580951
        },
        {
          "lat": 48.2038554,
          "lon": 16.3575402
        },
        {
          "lat": 48.203837,
          "lon": 16.3574374
        },
        {
          "lat": 48.2037994,
          "lon": 16.3574532
        },
        {
          "lat": 48.2037766,
          "lon": 16.3574628
        },
        {
          "lat": 48.2035808,
          "lon": 16.3575456
        },
        {
          "lat": 48.2036329,
          "lon": 16.3578329
        },
        {
          "lat": 48.2036432,
          "lon": 16.3578864
        },
        {
          "lat": 48.203682,
          "lon": 16.3580889
        },
        {
          "lat": 48.2037039,
          "lon": 16.3582024
        },
        {
          "lat": 48.2039553,
          "lon": 16.3580951
        }
      ],
      "tags": {
        "addr:city": "Wien",
        "addr:country": "AT",
        "addr:housenumber": "1",
        "addr:postcode": "1070",
        "addr:street": "Museumsplatz",
        "alt_name": "Museum moderner Kunst",
        "architect": "Ortner & Ortner",
        "building": "museum",
        "building:architecture": "modern",
        "building:material": "basalt",
        "contact:phone": "+43 1 52500-0",
        "contact:website": "http://www.mumok.at/",
        "description": "\"MUseum MOderner Kunst\"",
        "description:en": "\"MUseum MOderner Kunst\". 10,000 modern and contemporary art works, including major works from Andy Warhol, Pablo Picasso, Joseph Beuys, Nam June Paik, Wolf Vostell, Gerhard Richter, Jasper Johns and Roy Lichtenstein. (Source: Wikipedia:en)",
        "fee": "yes",
        "height": "25",
        "internet_access": "wlan",
        "internet_access:fee": "no",
        "internet_access:ssid": "MUMOK",
        "museum": "art",
        "name": "Museum Moderner Kunst Stiftung Ludwig Wien",
        "name:es": "Museo de Arte Moderno",
        "name:ja": "ルートヴィヒ財団近代美術館（MUMOK）",
        "name:ko": "현대미술관",
        "name:ru": "Музей современного искусства",
        "opening_hours": "Tu-Su 10:00-18:00; Mo off",
        "operator": "Museum Moderner Kunst Stiftung Ludwig Wien",
        "roof:height": "1",
        "roof:material": "basalt",
        "roof:shape": "round",
        "short_name": "mumok",
        "start_date": "2001-09-15",
        "toilets:wheelchair": "yes",
        "tourism": "museum",
        "website": "https://www.mumok.at/",
        "wheelchair": "yes",
        "wikidata": "Q689951",
        "wikipedia": "de:Museum Moderner Kunst Stiftung Ludwig Wien"
      }
    },
    {
      "type": "way",
      "id": 9245795,
      "bounds": {
        "minlat": 48.2082866,
        "minlon": 16.3615596,
        "maxlat": 48.2085354,
        "maxlon": 16.3618156
      },
      "nodes": [
        69219554,
        69219555,
        3305960740,
        69219556,
        69219558,
        69219554
      ],
      "geometry": [
        {
          "lat": 48.2085113,
          "lon": 16.3615596
        },
        {
          "lat": 48.2082866,
          "lon": 16.3616215
        },
        {
          "lat": 48.2082993,
          "lon": 16.3617211
        },
        {
          "lat": 48.2083114,
          "lon": 16.3618156
        },
        {
          "lat": 48.2085354,
          "lon": 16.3617517
        },
        {
          "lat": 48.2085113,
          "lon": 16.3615596
        }
      ],
      "tags": {
        "architect": "Peter von Nobile",
        "architect:wikidata": "Q330997",
        "building": "yes",
        "building:architecture": "neoclassicism",
        "description:en": "Replica of the ancient Theseion in Athens and housed Antonio Canova's sculpture Theseus group. Used by Kunsthistorisches Museum for exhibitions.",
        "fee": "no",
        "height": "10.5",
        "heritage": "2",
        "heritage:operator": "bda",
        "name": "Theseustempel",
        "name:de": "Theseustempel",
        "name:en": "Theseus Temple",
        "name:etymology": "Theseus besiegt den Kentauren",
        "name:etymology:wikidata": "Q27031521",
        "name:ru": "Храм Тесея",
        "name:uk": "Храм Тесея",
        "opening_hours": "PH,Mo-Su 11:00-18:00",
        "operator": "Kunsthistorisches Museum",
        "ref:at:bda": "20115",
        "seasonal": "yes",
        "start_date": "1823",
        "subject:wikidata": "Q756824",
        "tourism": "museum",
        "website": "https://www.geschichtewiki.wien.gv.at/Theseustempel",
        "wheelchair": "yes",
        "wikidata": "Q1491188",
        "wikipedia": "de:Theseustempel",
        "year_of_construction": "1820..1823"
      }
    },
    {
      "type": "way",
      "id": 20411606,
      "bounds": {
        "minlat": 48.2023185,
        "minlon": 16.3586524,
        "maxlat": 48.2028607,
        "maxlon": 16.3594811
      },
      "nodes": [
        217688971,
        1566470275,
        60650314,
        1566470379,
        2081381937,
        316522828,
        60650315,
        60650316,
        60650317,
        217688971
      ],
      "geometry": [
        {
          "lat": 48.2023185,
          "lon": 16.3590149
        },
        {
          "lat": 48.2023332,
          "lon": 16.3589952
        },
        {
          "lat": 48.2025882,
          "lon": 16.3586524
        },
        {
          "lat": 48.2026847,
          "lon": 16.3588158
        },
        {
          "lat": 48.2027209,
          "lon": 16.3588778
        },
        {
          "lat": 48.2028262,
          "lon": 16.3590578
        },
        {
          "lat": 48.2028607,
          "lon": 16.3591186
        },
        {
          "lat": 48.202591,
          "lon": 16.3594811
        },
        {
          "lat": 48.2023951,
          "lon": 16.3591396
        },
        {
          "lat": 48.2023185,
          "lon": 16.3590149
        }
      ],
      "tags": {
        "addr:city": "Wien",
        "addr:country": "AT",
        "addr:housenumber": "1",
        "addr:postcode": "1070",
        "addr:street": "Museumsplatz",
        "alt_name": "Museum Leopold",
        "architect": "Ortner & Ortner",
        "building": "yes",
        "building:architecture": "modern",
        "building:colour": "white",
        "building:levels": "3",
        "building:material": "chalk",
        "fee": "yes",
        "height": "24",
        "museum": "art",
        "name": "Leopold Museum",
        "name:es": "Museo Leopold",
        "name:ja": "レオポルド美術館",
        "name:ru": "Музей Леопольда",
        "opening_hours": "Fr-We,PH 10:00-18:00, Th 10:00-21:00",
        "roof:shape": "flat",
        "start_date": "2001",
        "toilets:wheelchair": "yes",
        "tourism": "museum",
        "website": "https://www.leopoldmuseum.org/",
        "wheelchair": "yes",
        "wikidata": "Q59435",
        "wikipedia": "de:Leopold Museum"
      }
    },
    {
      "type": "way",
      "id": 25371168,
      "bounds": {
        "minlat": 48.2003039,
        "minlon": 16.3655023,
        "maxlat": 48.2006873,
        "maxlon": 16.366063
      },
      "nodes": [
        276540314,
        1764647613,
        6851209877,
        1764647610,
        1764647563,
        1764647565,
        291483257,
        3517604690,
        291483244,
        1764647615,
        1764647619,
        1764647633,
        1764647629,
        276540317,
        6851209871,
        6851209862,
        276540314
      ],
      "geometry": [
        {
          "lat": 48.200558,
          "lon": 16.3655023
        },
        {
          "lat": 48.2005186,
          "lon": 16.365558
        },
        {
          "lat": 48.2005043,
          "lon": 16.3655351
        },
        {
          "lat": 48.2004897,
          "lon": 16.3655119
        },
        {
          "lat": 48.200354,
          "lon": 16.3657036
        },
        {
          "lat": 48.2003662,
          "lon": 16.365723
        },
        {
          "lat": 48.2003039,
          "lon": 16.3658109
        },
        {
          "lat": 48.2003864,
          "lon": 16.3659432
        },
        {
          "lat": 48.2004622,
          "lon": 16.366063
        },
        {
          "lat": 48.2005244,
          "lon": 16.3659751
        },
        {
          "lat": 48.2005399,
          "lon": 16.3659998
        },
        {
          "lat": 48.2006733,
          "lon": 16.3658113
        },
        {
          "lat": 48.2006456,
          "lon": 16.3657673
        },
        {
          "lat": 48.2006873,
          "lon": 16.3657083
        },
        {
          "lat": 48.2006538,
          "lon": 16.3656549
        },
        {
          "lat": 48.2006092,
          "lon": 16.3655838
        },
        {
          "lat": 48.200558,
          "lon": 16.3655023
        }
      ],
      "tags": {
        "addr:city": "Wien",
        "addr:country": "AT",
        "addr:housenumber": "12",
        "addr:postcode": "1010",
        "addr:street": "Friedrichstraße",
        "architect": "Joseph Maria Olbrich",
        "architect:wikidata": "Q44911",
        "architect:wikipedia": "de:Joseph Maria Olbrich",
        "building": "yes",
        "building:architecture": "art_nouveau",
        "description:en": "Vienna landmark building. Art Nouveau exhibition hall built by a group of artists, including Gustav Klimt, who broke away from the traditionalist Association of Austrian Artists to form the Vienna Secession movement. (Source: survey)",
        "fee": "yes",
        "heritage": "2",
        "heritage:operator": "bda",
        "name": "Secession",
        "name:cs": "Pavilon Secese",
        "name:ja": "セセッシオン",
        "name:ko": "빈 분리파 전시관",
        "name:ru": "Дом Сецессион",
        "name:zh": "分離派會館",
        "opening_hours": "Tu-Su 10:00-18:00",
        "start_date": "1898",
        "tourism": "museum",
        "website": "https://www.secession.at/",
        "wheelchair": "limited",
        "wikidata": "Q265129",
        "wikimedia_commons": "Category:Secession Hall (Austria)",
        "wikipedia": "de:Wiener Secessionsgebäude"
      }
    },
    {
      "type": "way",
      "id": 25577419,
      "bounds": {
        "minlat": 48.2004497,
        "minlon": 16.3711521,
        "maxlat": 48.2011047,
        "maxlon": 16.3722798
      },
      "nodes": [
        278807341,
        10880547776,
        10880547775,
        278807342,
        278807343,
        2097777107,
        2097777108,
        278807344,
        10880547744,
        10880547769,
        10880547772,
        10880547771,
        10880547770,
        278807345,
        278807346,
        10880547760,
        10880547761,
        10880547759,
        10880547751,
        10880547752,
        10880547753,
        10880547756,
        10880547758,
        10880547757,
        10880547755,
        10880547754,
        10880547750,
        10880547749,
        10880547764,
        10880547763,
        10880547762,
        278807351,
        2906981363,
        2906981364,
        10880547746,
        10880547748,
        10880547747,
        10880547745,
        2906981357,
        2906981355,
        278807353,
        10880547765,
        10880547766,
        10880547768,
        10880547767,
        10880547737,
        278807358,
        2097777109,
        2097777110,
        304774651,
        278807359,
        10880547773,
        10880547774,
        304774649,
        278807341
      ],
      "geometry": [
        {
          "lat": 48.2004497,
          "lon": 16.3716659
        },
        {
          "lat": 48.2004587,
          "lon": 16.3716707
        },
        {
          "lat": 48.2004596,
          "lon": 16.3716666
        },
        {
          "lat": 48.2005053,
          "lon": 16.3716903
        },
        {
          "lat": 48.200484,
          "lon": 16.3717843
        },
        {
          "lat": 48.2005619,
          "lon": 16.3718211
        },
        {
          "lat": 48.2005633,
          "lon": 16.3718139
        },
        {
          "lat": 48.2006849,
          "lon": 16.3718717
        },
        {
          "lat": 48.2006671,
          "lon": 16.3719468
        },
        {
          "lat": 48.2006648,
          "lon": 16.3719572
        },
        {
          "lat": 48.2006564,
          "lon": 16.3719527
        },
        {
          "lat": 48.2006123,
          "lon": 16.3721451
        },
        {
          "lat": 48.2006217,
          "lon": 16.3721495
        },
        {
          "lat": 48.2006208,
          "lon": 16.3721538
        },
        {
          "lat": 48.2008731,
          "lon": 16.3722793
        },
        {
          "lat": 48.2008739,
          "lon": 16.3722757
        },
        {
          "lat": 48.2008824,
          "lon": 16.3722798
        },
        {
          "lat": 48.2009256,
          "lon": 16.3720882
        },
        {
          "lat": 48.2009173,
          "lon": 16.3720832
        },
        {
          "lat": 48.2009575,
          "lon": 16.371904
        },
        {
          "lat": 48.2009624,
          "lon": 16.3719065
        },
        {
          "lat": 48.2009745,
          "lon": 16.3718542
        },
        {
          "lat": 48.2009793,
          "lon": 16.371856
        },
        {
          "lat": 48.201011,
          "lon": 16.3717146
        },
        {
          "lat": 48.2010061,
          "lon": 16.3717124
        },
        {
          "lat": 48.2010177,
          "lon": 16.3716594
        },
        {
          "lat": 48.2010132,
          "lon": 16.3716568
        },
        {
          "lat": 48.2010545,
          "lon": 16.3714764
        },
        {
          "lat": 48.2010611,
          "lon": 16.3714794
        },
        {
          "lat": 48.2011047,
          "lon": 16.3712909
        },
        {
          "lat": 48.2010953,
          "lon": 16.3712866
        },
        {
          "lat": 48.2010962,
          "lon": 16.3712827
        },
        {
          "lat": 48.2010388,
          "lon": 16.3712539
        },
        {
          "lat": 48.2010464,
          "lon": 16.3712199
        },